"station_id","name","lat","lon","capacity","last_updated"
"0825b2e7-1f3f-11e7-bf6b-3863bb334450","Offutt Ln & Chevy Chase Dr",38.977093,-77.094589,11,2024-12-04 10:13:44
"0a5dbbe0-1325-49af-9fca-f0748ca06dc0","Army Navy Dr & Fern St",38.864838,-77.056873,15,2024-12-04 10:13:44
"0825be94-1f3f-11e7-bf6b-3863bb334450","31st St & S Woodrow St",38.8378458,-77.0934784,11,2024-12-04 10:13:44
"08246df5-1f3f-11e7-bf6b-3863bb334450","Pentagon City Metro / 12th St & S Hayes St",38.862303,-77.059936,19,2024-12-04 10:13:44
"5e571279-84a3-4dd6-9ee5-6a834e4c624a","S Maple Ave & S Washington St",38.87972,-77.178408,12,2024-12-04 10:13:44
"0824c772-1f3f-11e7-bf6b-3863bb334450","7th & F St NW / National Portrait Gallery",38.897123,-77.023934,35,2024-12-04 10:13:44
"0825e1e5-1f3f-11e7-bf6b-3863bb334450","1st & H St NW",38.900358,-77.012108,15,2024-12-04 10:13:44
"08254442-1f3f-11e7-bf6b-3863bb334450","5th St & Massachusetts Ave NW",38.90093,-77.018677,19,2024-12-04 10:13:44
"082480f1-1f3f-11e7-bf6b-3863bb334450","Nannie Helen Burroughs & Minnesota Ave NE",38.901385,-76.941877,11,2024-12-04 10:13:44
"0825f2b1-1f3f-11e7-bf6b-3863bb334450","Bethesda Metro / Wisconsin Ave & Old Georgetown Rd",38.984691,-77.094537,12,2024-12-04 10:13:44
"a2507ccc-aca1-48b2-a6a3-a3144ad92d21","Connecticut Ave & R St NW",38.912644,-77.04564,19,2024-12-04 10:13:44
"08265124-1f3f-11e7-bf6b-3863bb334450","Wheaton Metro / Georgia Ave & Reedie Dr",39.0384238285183,-77.0510204136372,19,2024-12-04 10:13:44
"1934289487117353510","Kansas Ave & Tuckerman St NW / Lamond Rec ",38.967492,-77.007003,15,2024-12-04 10:13:44
"d72b1790-0fea-4af8-9d2a-fd4d4db24d1a","Livingston Rd & 3rd St SE",38.82373,-77.00223,15,2024-12-04 10:13:44
"ebbf6e18-684d-4fc9-ad4d-c025b8d76556","Prince George's Plaza Metro",38.965742,-76.954803,17,2024-12-04 10:13:44
"08253a4b-1f3f-11e7-bf6b-3863bb334450","St Asaph & Pendleton St",38.810741479387,-77.0446327328682,15,2024-12-04 10:13:44
"bed9b757-0df2-4a97-a6ac-415db00e82c8","Kingman Island/The Fields at RFK",38.8959545570075,-76.9678448436025,19,2024-12-04 10:13:44
"c98241f4-a3c0-4eb8-86bd-dd057baa0192","N Shore Dr & Wainwright Dr",38.963782,-77.349764,12,2024-12-04 10:13:44
"6d5ad96d-a704-4fa6-8b65-3ac643c5aa93","Lincoln Rd & Seaton Pl NE/Harry Thomas Rec Center",38.915,-77.0078,19,2024-12-04 10:13:44
"08263959-1f3f-11e7-bf6b-3863bb334450","New Dominion Pkwy & Fountain Dr",38.960574,-77.356324,11,2024-12-04 10:13:44
"0824bce1-1f3f-11e7-bf6b-3863bb334450","3rd & H St NE",38.900412,-77.001949,19,2024-12-04 10:13:44
"d34d2639-ee43-4892-818f-f01116813744","The Mall at Prince Georges",38.968842,-76.954171,17,2024-12-04 10:13:44
"08263aa1-1f3f-11e7-bf6b-3863bb334450","1st & D St SE",38.884916,-77.005965,19,2024-12-04 10:13:44
"0825213e-1f3f-11e7-bf6b-3863bb334450","Central Library / Quincy St & 10th St N",38.88397,-77.10783,12,2024-12-04 10:13:44
"08253c6b-1f3f-11e7-bf6b-3863bb334450","Braddock Rd Metro North",38.814577,-77.052808,29,2024-12-04 10:13:44
"1892760823152249488","Route 29 & Circle Woods Dr",38.8691141929057,-77.2715376694355,11,2024-12-04 10:13:44
"08263fbd-1f3f-11e7-bf6b-3863bb334450","W&OD Trail/Sunset Hills Rd & Isaac Newton Sq",38.951419,-77.340281,19,2024-12-04 10:13:44
"08247fe1-1f3f-11e7-bf6b-3863bb334450","Randle Circle & Minnesota Ave SE",38.878,-76.9607,11,2024-12-04 10:13:44
"082522f0-1f3f-11e7-bf6b-3863bb334450","Smithsonian-National Mall / Jefferson Dr & 12th St SW",38.888774,-77.028694,35,2024-12-04 10:13:44
"1999699654561182176","Walker Mill Road/ Walker Mill Regional Park ",38.875772,-76.868767,15,2024-12-04 10:13:44
"fbbeab20-556d-4275-98a9-f84d316c157f","8th & H St NE",38.8999416268848,-76.994896531105,19,2024-12-04 10:13:44
"0826402c-1f3f-11e7-bf6b-3863bb334450","N Lynn St & Fairfax Dr",38.89386,-77.070862,15,2024-12-04 10:13:44
"0825faf6-1f3f-11e7-bf6b-3863bb334450","WAU / Flower Ave & Division St",38.986743,-77.000035,15,2024-12-04 10:13:44
"08256d91-1f3f-11e7-bf6b-3863bb334450","Constitution Ave & 2nd St NW/DOL",38.892275,-77.013917,27,2024-12-04 10:13:44
"08260472-1f3f-11e7-bf6b-3863bb334450","Columbia Pike & S Highland St",38.862398,-77.089133,12,2024-12-04 10:13:44
"0824ea2c-1f3f-11e7-bf6b-3863bb334450","19th St N & Ft Myer Dr",38.897218,-77.072143,15,2024-12-04 10:13:44
"3af8c81c-b8d8-4af7-afe9-332a2cac4672","Commonwealth and Reed",38.8368376462948,-77.0572739839554,16,2024-12-04 10:13:44
"08251448-1f3f-11e7-bf6b-3863bb334450","3rd & G St SE",38.881185,-77.001828,19,2024-12-04 10:13:44
"a3761e59-db36-4b61-8bb3-8d523af69b96","Garland Ave & Walden Rd",39.00048,-77.00077,15,2024-12-04 10:13:44
"5dfab137-f65a-41c0-99ef-d58f29a735b2","Reston Town Center Metro South",38.9523,-77.361466,19,2024-12-04 10:13:44
"066fd95e-0d37-4eea-a027-88c04277bb9d","7th & Monroe St NE",38.9322425815551,-76.9961330294609,15,2024-12-04 10:13:44
"0826345e-1f3f-11e7-bf6b-3863bb334450","Spring Hill Metro",38.929261,-77.240654,15,2024-12-04 10:13:44
"08254dee-1f3f-11e7-bf6b-3863bb334450","S Arlington Mill Dr & Campbell Ave",38.84232,-77.089555,15,2024-12-04 10:13:44
"cdeeb133-ccd7-418f-a8d7-0b5c5380a8ae","N Howard St & Taney Ave",38.815842,-77.110014,15,2024-12-04 10:13:44
"082623bf-1f3f-11e7-bf6b-3863bb334450","17th St & Independence Ave SW",38.888097,-77.038325,19,2024-12-04 10:13:44
"082520aa-1f3f-11e7-bf6b-3863bb334450","Virginia Square Metro / Monroe St & 9th St N",38.882788,-77.103148,19,2024-12-04 10:13:44
"8bbafd08-edb1-426d-94f4-c7b7d9be34dd","John McCormack Rd NE",38.938889,-76.997226,19,2024-12-04 10:13:44
"0825201c-1f3f-11e7-bf6b-3863bb334450","1st & Washington Hospital Center NW",38.928743,-77.012457,15,2024-12-04 10:13:44
"42ad2bc8-22b5-40f2-8a56-e562e4ecde07","Oglethorpe St & 42nd Ave",38.959361,-76.946361,15,2024-12-04 10:13:44
"febec658-2bcd-473e-8ba8-f84f016da7cd","Reed & Edison",38.83728,-77.060899,11,2024-12-04 10:13:44
"1932168474073292810","16th St & North Carolina Ave NE",38.893062,-76.982464,19,2024-12-04 10:13:44
"1874573898176678104","Blenheim Blvd & North St",38.846972,-77.303349,12,2024-12-04 10:13:44
"08259c89-1f3f-11e7-bf6b-3863bb334450","47th & Elm St",38.982456,-77.091991,15,2024-12-04 10:13:44
"0825ff8d-1f3f-11e7-bf6b-3863bb334450","Langston Blvd & N Kirkwood Rd",38.895377,-77.09713,15,2024-12-04 10:13:44
"08261e7a-1f3f-11e7-bf6b-3863bb334450","2nd St & Massachusetts Ave NE",38.894972,-77.003135,23,2024-12-04 10:13:44
"082595a1-1f3f-11e7-bf6b-3863bb334450","Monroe St & Monroe Pl",39.083673,-77.149162,15,2024-12-04 10:13:44
"68eaf9f5-7b2d-4f60-9f02-9f5ba1103f80","Broad Branch Rd & Northampton St NW",38.9657749934222,-77.0686264336109,19,2024-12-04 10:13:44
"082605b0-1f3f-11e7-bf6b-3863bb334450","Georgia & Missouri Ave NW",38.961339,-77.027855,19,2024-12-04 10:13:44
"0824773f-1f3f-11e7-bf6b-3863bb334450","Calvert & Biltmore St NW",38.923203,-77.047637,23,2024-12-04 10:13:44
"08262494-1f3f-11e7-bf6b-3863bb334450","Mount Vernon Ave & Four Mile Run Park",38.843422,-77.064016,15,2024-12-04 10:13:44
"08254943-1f3f-11e7-bf6b-3863bb334450","14th & Upshur St NW",38.9424753556028,-77.0326781272888,19,2024-12-04 10:13:44
"08256e11-1f3f-11e7-bf6b-3863bb334450","Washington & Independence Ave SW/HHS",38.886978,-77.013769,31,2024-12-04 10:13:44
"c0ec45a3-ec59-4c82-9671-13d9c122be30","North Village and Park Garden",38.983199,-77.341823,12,2024-12-04 10:13:44
"0826183f-1f3f-11e7-bf6b-3863bb334450","16th & R St NW",38.912652,-77.036278,19,2024-12-04 10:13:44
"0824a703-1f3f-11e7-bf6b-3863bb334450","D St & Maryland Ave NE",38.8948406424707,-76.9959157705307,23,2024-12-04 10:13:44
"3d8b6392-9572-4c65-b71c-fd8f03af9ab2","Emma Lee St & Morris St",38.877818,-77.209421,12,2024-12-04 10:13:44
"0825e56c-1f3f-11e7-bf6b-3863bb334450","Shady Grove Metro West",39.119765,-77.166093,19,2024-12-04 10:13:44
"08255063-1f3f-11e7-bf6b-3863bb334450","17th St & Massachusetts Ave NW",38.908568,-77.038542,19,2024-12-04 10:13:44
"6e652351-dad9-45e4-a0a7-dda0417973f4","E Fairfax St & S Washington St",38.880612,-77.171891,12,2024-12-04 10:13:44
"a07bd5e0-5136-4285-ae23-54a74124957e","Montello Ave & Holbrook Terr NE",38.907444,-76.986813,19,2024-12-04 10:13:44
"08261f4b-1f3f-11e7-bf6b-3863bb334450","East Falls Church Metro / Sycamore St & 19th St N",38.8853207197507,-77.1564272046089,19,2024-12-04 10:13:44
"0824eba7-1f3f-11e7-bf6b-3863bb334450","Clarendon Blvd & Pierce St",38.893438,-77.076389,15,2024-12-04 10:13:44
"21cdfe0d-71ad-4302-a003-3cfc0d355af9","4th & Florida Ave NE",38.9073164505746,-77.0006981492043,19,2024-12-04 10:13:44
"1879766346478500482","39th St & Tunlaw Rd NW",38.9257,-77.079119,19,2024-12-04 10:13:44
"f08db1df-054a-46c8-a3e1-b349f2a26d5e","Vaden Dr & Royal Victoria Dr/Jim Scott Cmty Ctr",38.873261,-77.272999,11,2024-12-04 10:13:44
"0826139b-1f3f-11e7-bf6b-3863bb334450","Yuma St & Tenley Circle NW",38.946182,-77.08059,19,2024-12-04 10:13:44
"5eb5b5a7-db69-4d8a-a16a-604678a544b7","Marymount University / Yorktown Blvd & 26th St N",38.904252,-77.127776,15,2024-12-04 10:13:44
"8d8a3add-40b4-41ba-bffe-5a754ebc1625","Mt Vernon Trail & S. Washington St.",38.7930647,-77.049436,15,2024-12-04 10:13:44
"987decdd-577d-4614-a6eb-307944a634b4","1301 McCormick Dr / Wayne K. Curry Admin Bldg",38.908391,-76.843263,15,2024-12-04 10:13:44
"0824c229-1f3f-11e7-bf6b-3863bb334450","Lincoln Park / 13th & East Capitol St NE ",38.890461,-76.988355,33,2024-12-04 10:13:44
"08256670-1f3f-11e7-bf6b-3863bb334450","12th & U St NW",38.916787,-77.028139,31,2024-12-04 10:13:44
"082514b8-1f3f-11e7-bf6b-3863bb334450","7th & R St NW / Shaw Library",38.912719,-77.022155,15,2024-12-04 10:13:44
"8d68e4db-0bc9-440a-9b27-5d34ed1b93c9","Vantage Hill Rd & Wainwright Dr",38.9667,-77.348487,12,2024-12-04 10:13:44
"0826380c-1f3f-11e7-bf6b-3863bb334450","North Shore & Cameron Crescent Dr/Crescent Apartments",38.970046,-77.338686,11,2024-12-04 10:13:44
"a77b8993-6d68-425e-a37a-0e613a7cb17a","Merrilee Dr & Lauren Elizabeth Lane",38.8785724931483,-77.2307659685612,11,2024-12-04 10:13:44
"dfa896d9-9209-413d-b494-e255ef513d2c","Van Dorn Metro",38.8000766,-77.1299434,19,2024-12-04 10:13:44
"0825b553-1f3f-11e7-bf6b-3863bb334450","Silver Spring Transit Center - Top Level",38.9940348506084,-77.030371427536,15,2024-12-04 10:13:44
"0825610d-1f3f-11e7-bf6b-3863bb334450","15th & F St NE",38.897195,-76.983575,19,2024-12-04 10:13:44
"08253b95-1f3f-11e7-bf6b-3863bb334450","Commerce St & Fayette St",38.80563,-77.052925,15,2024-12-04 10:13:44
"08252b28-1f3f-11e7-bf6b-3863bb334450","Gallaudet / 8th St & Florida Ave NE",38.90509,-76.9941,19,2024-12-04 10:13:44
"082650b1-1f3f-11e7-bf6b-3863bb334450","New Hampshire & Kirklynn Ave",38.988101,-76.988422,15,2024-12-04 10:13:44
"6922a398-ec20-493d-a832-5e337cf335f5","Roosevelt Center & Crescent Rd",39.00031,-76.878005,15,2024-12-04 10:13:44
"0825164b-1f3f-11e7-bf6b-3863bb334450","Columbia Rd & Georgia Ave NW",38.928121111321,-77.0237946510315,27,2024-12-04 10:13:44
"472dee60-f045-4f2e-9807-193e3ae9b661","S Washington St & Wilkes St",38.800703,-77.048043,12,2024-12-04 10:13:44
"12b1c990-90e7-4fef-a5b9-c78d4c81af96","53rd & D St SE/C.W. Harris Elementary",38.883318,-76.925315,19,2024-12-04 10:13:44
"2a43f4e2-4102-482e-8879-245cf7555c6b","14th & Otis Pl NW",38.934405,-77.032687,27,2024-12-04 10:13:44
"082569e6-1f3f-11e7-bf6b-3863bb334450","Columbia Pike & S Orme St",38.867262,-77.072315,11,2024-12-04 10:13:44
"0824d0c6-1f3f-11e7-bf6b-3863bb334450","Columbus Circle / Union Station",38.89696,-77.00493,55,2024-12-04 10:13:44
"7c46ff05-4fca-44e6-a50b-acbc57e8100b","Joliet St & MLK Ave SW/Bald Eagle Rec Ctr",38.81909,-77.01033,15,2024-12-04 10:13:44
"082604dd-1f3f-11e7-bf6b-3863bb334450","2nd & G St NE",38.89967,-77.003666,23,2024-12-04 10:13:44
"0825ac97-1f3f-11e7-bf6b-3863bb334450","Fenton St & Gist Ave",38.989724,-77.023854,11,2024-12-04 10:13:44
"85c2fb24-d241-4550-8968-2cdf85462af7","Soapstone Dr Convenience Center",38.93051,-77.345874,12,2024-12-04 10:13:44
"08252530-1f3f-11e7-bf6b-3863bb334450","Langston Blvd & N Adams St",38.89593,-77.089006,15,2024-12-04 10:13:44
"1890204129337198944","Dorr Ave & Prosperity Ave",38.879256,-77.233583,11,2024-12-04 10:13:44
"082624fc-1f3f-11e7-bf6b-3863bb334450","New Jersey Ave & K St NW",38.9025710917229,-77.0136666297913,23,2024-12-04 10:13:44
"0825fbd3-1f3f-11e7-bf6b-3863bb334450","Connecticut Ave & McKinley St NW",38.9645435092459,-77.0751348137856,19,2024-12-04 10:13:44
"84a0159b-5f00-417a-8f06-6c7c8437049f","1st & Q St SW",38.8708239395379,-77.0119151473045,15,2024-12-04 10:13:44
"08254284-1f3f-11e7-bf6b-3863bb334450","Lincoln Memorial",38.888255,-77.0494365,25,2024-12-04 10:13:44
"08258475-1f3f-11e7-bf6b-3863bb334450","Frederick Ave & Horners Ln",39.094772,-77.145213,9,2024-12-04 10:13:44
"1917259666206632502","Franconia-Springfield Metro North",38.766946,-77.168902,19,2024-12-04 10:13:44
"0824f461-1f3f-11e7-bf6b-3863bb334450","Columbia Rd & Belmont St NW",38.920669,-77.04368,19,2024-12-04 10:13:44
"0825e4d5-1f3f-11e7-bf6b-3863bb334450","S Randolph St & Campbell Ave",38.8406540067215,-77.0886585116386,15,2024-12-04 10:13:44
"1900964406001033780","N Shore Dr & Bandit Loop",38.95937,-77.331794,11,2024-12-04 10:13:44
"082547de-1f3f-11e7-bf6b-3863bb334450","5th & Kennedy St NW",38.956555547722,-77.0198142528534,15,2024-12-04 10:13:44
"6edca550-d78f-4c5d-ad2c-79d1ce88c48d","White Oak Transit Center",39.04104,-76.987125,19,2024-12-04 10:13:44
"f0101beb-a103-46e4-93f5-c7880b85411b","Route 29 & Bisvey Dr",38.876912,-77.195847,12,2024-12-04 10:13:44
"082518eb-1f3f-11e7-bf6b-3863bb334450","Anacostia Ave & Benning Rd NE / River Terrace ",38.896544,-76.96012,15,2024-12-04 10:13:44
"082537e4-1f3f-11e7-bf6b-3863bb334450","12th & L St NW",38.903819,-77.0284,19,2024-12-04 10:13:44
"94b1507c-7f76-483c-b06a-a4131e0b5970","Waterfront Park",38.8748207725134,-77.0207878947258,19,2024-12-04 10:13:44
"13c42471-96ab-441d-9a4c-bc57f7af6f9b","Golf Course Sq and Golf Course Dr",38.944013,-77.353552,12,2024-12-04 10:13:44
"e456b38d-7f5e-4d06-b2bc-022b42097a06","N Hampton Dr & Ford Ave",38.837306,-77.106111,11,2024-12-04 10:13:44
"ee2cb739-9118-4069-b4f7-435ef53db537","37th & Ely Pl SE",38.883132,-76.950009,15,2024-12-04 10:13:44
"83c9bc80-bc42-4e5d-9f5e-6c24812e6e37","Wilson Blvd & N Oak St",38.895068,-77.07386,17,2024-12-04 10:13:44
"10d57c0d-6f3c-45d1-8a12-eda5665e213c","Crescent Rd & Ridge Rd",39.006191,-76.891247,15,2024-12-04 10:13:44
"0825525a-1f3f-11e7-bf6b-3863bb334450","15th & Euclid St NW",38.92333,-77.0352,15,2024-12-04 10:13:44
"08261d9d-1f3f-11e7-bf6b-3863bb334450","10th St & L'Enfant Plaza SW",38.8843227241466,-77.0260101556778,23,2024-12-04 10:13:44
"08256ac9-1f3f-11e7-bf6b-3863bb334450","8th & D St NW",38.894851,-77.02324,15,2024-12-04 10:13:44
"08263cab-1f3f-11e7-bf6b-3863bb334450","61st St & Banks Pl NE",38.891805,-76.913563,19,2024-12-04 10:13:44
"7a19d0e7-2b3c-4805-b843-1aec84a05bfe","Reservoir Rd & 38th St NW",38.9126135946919,-77.0743226407649,19,2024-12-04 10:13:44
"0825be05-1f3f-11e7-bf6b-3863bb334450","North Capitol St & G Pl NE",38.899703,-77.008911,19,2024-12-04 10:13:44
"6ffb5d30-d3f4-462b-8182-c552bebc9310","McLean Metro",38.9240020752018,-77.208126783371,19,2024-12-04 10:13:44
"08257325-1f3f-11e7-bf6b-3863bb334450","Fenton St & New York Ave ",38.985404,-77.023082,15,2024-12-04 10:13:44
"0825f723-1f3f-11e7-bf6b-3863bb334450","New Hampshire Ave & 24th St NW",38.901755,-77.051084,19,2024-12-04 10:13:44
"082644bc-1f3f-11e7-bf6b-3863bb334450","6th & K St NE",38.9029315735912,-76.9984048604965,19,2024-12-04 10:13:44
"e976c0ab-bc21-42b3-a2c2-b90def6f54f4","Becontree Ln & Goldenrain Ct",38.966848,-77.329282,12,2024-12-04 10:13:44
"0825e3b0-1f3f-11e7-bf6b-3863bb334450","Rhode Island Ave Metro",38.920682,-76.995876,19,2024-12-04 10:13:44
"e823318f-8406-4230-8072-1667f5de78d4","Reston Town Center Metro North",38.953691,-77.359717,23,2024-12-04 10:13:44
"0136af02-2670-4042-b5cd-18b46c15c0c1","Market St & St Francis St",38.95866,-77.361516,12,2024-12-04 10:13:44
"1893303738183408178","Prosperity Ave & Avenir Pl",38.8814358641281,-77.2303774848911,11,2024-12-04 10:13:44
"1931715167823202508","18th St & Ingleside Ter NW",38.934784,-77.041362,19,2024-12-04 10:13:44
"0824fd71-1f3f-11e7-bf6b-3863bb334450","Clarendon Blvd & N Fillmore St",38.8881,-77.09308,15,2024-12-04 10:13:44
"5075ddc9-7546-44a6-9445-0a48a53267df","Briggs Chaney & Castle Dr",39.081638,-76.945495,19,2024-12-04 10:13:44
"29b65d73-fc99-42e3-9007-2175402a5c56","Largo Town Center Metro",38.899811,-76.844604,17,2024-12-04 10:13:44
"9973e0f4-23dd-4b50-9ef4-8408fa8a1105","South Capitol St and Southern Ave SE",38.821563,-77.001095,15,2024-12-04 10:13:44
"e2a96f4c-801e-4cf8-be0f-f767a5d8ca1b","S Clark St & 33rd St",38.845028,-77.051956,12,2024-12-04 10:13:44
"0824e2e3-1f3f-11e7-bf6b-3863bb334450","Potomac Ave & 35th St S",38.844015,-77.050537,15,2024-12-04 10:13:44
"d3cf2811-ca2e-4d2c-9843-8a90049b7b80","South Lakes Dr and Reston Pkwy",38.94335,-77.362304,12,2024-12-04 10:13:44
"08254529-1f3f-11e7-bf6b-3863bb334450","Fessenden St & Wisconsin Ave NW",38.954812,-77.082426,15,2024-12-04 10:13:44
"0825460b-1f3f-11e7-bf6b-3863bb334450","Columbia Pike & S Courthouse Rd",38.863833,-77.080319,15,2024-12-04 10:13:44
"27d919c7-7fda-41d1-9c05-2f537d5c4ce2","Queens Chapel & Hamilton St",38.9546,-76.9595,15,2024-12-04 10:13:44
"082630e2-1f3f-11e7-bf6b-3863bb334450","Powhatan St & Bashford Ln",38.818748,-77.047783,15,2024-12-04 10:13:44
"1957757292469049786","Chain Bridge Rd & Anderson Rd",38.925572,-77.204762,11,2024-12-04 10:13:44
"0824806c-1f3f-11e7-bf6b-3863bb334450","Minnesota Ave Metro/DOES",38.897063,-76.947446,15,2024-12-04 10:13:44
"d0a82ee8-e718-4598-aa5e-dda9292c248c","Trinidad Rec Center",38.906299,-76.983221,19,2024-12-04 10:13:44
"08264173-1f3f-11e7-bf6b-3863bb334450","Madison St & Fairfax St",38.812351,-77.040691,15,2024-12-04 10:13:44
"1875305027705686898","Fair Woods Pkwy & Fairfax Blvd",38.862804,-77.293922,12,2024-12-04 10:13:44
"08247c29-1f3f-11e7-bf6b-3863bb334450","14th & Quincy St NW",38.938024,-77.032688,19,2024-12-04 10:13:44
"f8b331c6-d208-4b17-b788-1a17d2520c40","Georgia Ave & Dahlia St NW",38.976061,-77.026747,19,2024-12-04 10:13:44
"abd8bd04-94ec-4818-baf5-7f79742e982c","Arlington Blvd & Fairfax Dr",38.8862560669206,-77.0842623710632,16,2024-12-04 10:13:44
"0825f622-1f3f-11e7-bf6b-3863bb334450","10th & G St NW",38.8982432877485,-77.026235461235,23,2024-12-04 10:13:44
"a0d0ec92-ebda-436a-b476-7ee9a7bdb67d","7th & K St NW",38.902674,-77.021392,19,2024-12-04 10:13:44
"07a453e5-2e14-4276-85df-49e0d6144e54","Kenilworth Terr & Hayes St. NE",38.9004684878336,-76.9472873210907,19,2024-12-04 10:13:44
"082477f4-1f3f-11e7-bf6b-3863bb334450","Lamont & Mt Pleasant NW",38.9319,-77.0388,23,2024-12-04 10:13:44
"082636d5-1f3f-11e7-bf6b-3863bb334450","Jones Branch & Westbranch Dr",38.931911,-77.219261,13,2024-12-04 10:13:44
"347b72fa-4ae2-4017-a9bf-344a122cddeb","Kenmore Ave & Seminary Rd",38.828887,-77.110588,11,2024-12-04 10:13:44
"29f174dd-e7bc-4329-a570-0220f0d1be84","Lake Newport Rd and Autumn Ridge Cir",38.9785025515145,-77.3534542322159,12,2024-12-04 10:13:44
"1999643103701119546","40th Ave & Bladensburg Rd",38.935388,-76.949287,15,2024-12-04 10:13:44
"0825f3d4-1f3f-11e7-bf6b-3863bb334450","34th & Water St NW",38.9037315,-77.0675285,19,2024-12-04 10:13:44
"0824e68d-1f3f-11e7-bf6b-3863bb334450","Ohio Dr & West Basin Dr SW / MLK & FDR Memorials",38.88412,-77.04657,31,2024-12-04 10:13:44
"9c6fb0a8-d371-433f-b52e-ca47881156b3","4th & O St SW",38.872964,-77.017585,15,2024-12-04 10:13:44
"0826005e-1f3f-11e7-bf6b-3863bb334450","2nd St & Seaton Pl NE",38.9147511088312,-77.0035600662231,19,2024-12-04 10:13:44
"ae00650a-be2d-4912-8f0d-8338b3754eed","New Hampshire Ave & East-West Hwy",38.974205,-76.995227,15,2024-12-04 10:13:44
"08254037-1f3f-11e7-bf6b-3863bb334450","22nd & I St NW / Foggy Bottom",38.90088,-77.048911,15,2024-12-04 10:13:44
"f0d7675e-2ce0-41e7-94f5-28ca712fa456","Columbia Pike & S Greenbrier St",38.854019,-77.118106,15,2024-12-04 10:13:44
"082527e7-1f3f-11e7-bf6b-3863bb334450","Jefferson Memorial",38.879819,-77.037413,23,2024-12-04 10:13:44
"bce02846-6f5e-466a-a643-50534a119533","Virginia Ave & 25th St NW",38.8984603835094,-77.0530521869659,19,2024-12-04 10:13:44
"0627dc3c-5c62-4ab1-a6f0-3635c6f80d23","MBT & Bryant St NE",38.9224036411545,-76.9960230588913,19,2024-12-04 10:13:44
"0824844b-1f3f-11e7-bf6b-3863bb334450","Georgia Ave & Fairmont St NW",38.924784585267,-77.0223274827003,15,2024-12-04 10:13:44
"99644655-ef85-4e13-a331-a344d88ded32","23rd St S & Hayes St",38.853002,-77.059496,15,2024-12-04 10:13:44
"77cd13d5-f671-437a-a59c-bcc74c6b211e","24th St & Rhode Island Ave NE",38.9307741530831,-76.9728514552116,15,2024-12-04 10:13:44
"1957750905852681124","Hilltop Rd & Willowmere Dr ",38.876903,-77.241518,11,2024-12-04 10:13:44
"1934708272694780030","18th & Upshur St NE",38.941733,-76.980378,15,2024-12-04 10:13:44
"7346145e-f487-4f07-acb8-ed3e0b8b56bb","19th St & Wyoming Ave NW",38.918777,-77.044415,19,2024-12-04 10:13:44
"0826176a-1f3f-11e7-bf6b-3863bb334450","Wisconsin Ave & Ingomar St NW",38.958267,-77.084636,19,2024-12-04 10:13:44
"732103a1-eedd-4044-afa6-67b2d192ff22","13th & U St NW",38.9169364532365,-77.0296311378479,2,2024-12-04 10:13:44
"0825738d-1f3f-11e7-bf6b-3863bb334450","Bethesda Ave & Arlington Rd",38.981103,-77.097426,19,2024-12-04 10:13:44
"461df1a0-fac6-4a11-ac4c-ff795e6299c9","Georgia Ave & Morton St NW",38.932128,-77.0235,19,2024-12-04 10:13:44
"082484cf-1f3f-11e7-bf6b-3863bb334450","1st & N St SE",38.87502273556,-77.0057541131973,39,2024-12-04 10:13:44
"568a84a6-8911-48aa-8ad4-9a1b46564e9d","Georgia Ave & Kennedy St NW",38.95674,-77.02791,19,2024-12-04 10:13:44
"83fa4699-b2ee-4f14-af3b-167f34a62fb4","Madron Ln & Bermudez Ct",38.904415,-77.221807,12,2024-12-04 10:13:44
"082652d2-1f3f-11e7-bf6b-3863bb334450","Windham Ln & Amherst Ave",39.032029,-77.04735,15,2024-12-04 10:13:44
"0824f3d6-1f3f-11e7-bf6b-3863bb334450","Wilson Blvd & N Edgewood St",38.8893960709235,-77.0918624103069,15,2024-12-04 10:13:44
"5f0f9566-90d4-431e-9b6d-994e26d20ec6","United Medical Center",38.835737,-76.983144,19,2024-12-04 10:13:44
"0825aa94-1f3f-11e7-bf6b-3863bb334450","Montgomery College / W Campus Dr & Mannakee St",39.095661,-77.159048,21,2024-12-04 10:13:44
"0825fb66-1f3f-11e7-bf6b-3863bb334450","Long Bridge Park / Long Bridge Dr & 6th St S",38.865553,-77.05003,15,2024-12-04 10:13:44
"0824a5b0-1f3f-11e7-bf6b-3863bb334450","18th & L St NW",38.9037414509194,-77.0424520969391,19,2024-12-04 10:13:44
"08256fcd-1f3f-11e7-bf6b-3863bb334450","Columbia Pike & S Walter Reed Dr",38.862478,-77.086599,12,2024-12-04 10:13:44
"0824bb59-1f3f-11e7-bf6b-3863bb334450","10th & Monroe St NE",38.9324569000636,-76.9935339689255,19,2024-12-04 10:13:44
"0824c1a1-1f3f-11e7-bf6b-3863bb334450","4th & East Capitol St NE",38.889955,-77.000349,11,2024-12-04 10:13:44
"1941813138517442794","17th St & Potomac Ave SE / Congressional Cemetery ",38.882458,-76.980715,19,2024-12-04 10:13:44
"08249d44-1f3f-11e7-bf6b-3863bb334450","L'Enfant Plaza / 7th & C St SW",38.886266,-77.022241,15,2024-12-04 10:13:44
"55d4e20d-6b27-485e-8115-4046ac2313ea","Whitehaven Pkwy & Foxhall Rd NW / GWU Mt. Vernon",38.916501,-77.0909109,19,2024-12-04 10:13:44
"08252260-1f3f-11e7-bf6b-3863bb334450","Jefferson Dr & 14th St SW",38.8885525,-77.032427,23,2024-12-04 10:13:44
"2a76806e-32b4-4ec6-a851-f73ba7dafda1","North Capitol & R St NE",38.91256,-77.008775,15,2024-12-04 10:13:44
"89263cc9-13f6-4185-b315-5164c9bb930e","New Hampshire & Gallatin St NW",38.951596,-77.012808,19,2024-12-04 10:13:44
"0824cdb0-1f3f-11e7-bf6b-3863bb334450","37th & O St NW / Georgetown University",38.907837,-77.07166,23,2024-12-04 10:13:44
"08253b2b-1f3f-11e7-bf6b-3863bb334450","15th & K St NW",38.902,-77.03353,27,2024-12-04 10:13:44
"af5c5675-452b-4e1f-9d9f-7f4a0c50388d","Arlington National Cemetery",38.884533,-77.065803,19,2024-12-04 10:13:44
"08257f71-1f3f-11e7-bf6b-3863bb334450","Traville Gateway Dr & Gudelsky Dr",39.093783,-77.202501,19,2024-12-04 10:13:44
"082639c8-1f3f-11e7-bf6b-3863bb334450","W&OD Trail/Sunset Hills Rd & Old Reston Ave",38.955079,-77.351649,15,2024-12-04 10:13:44
"72e7c396-11ad-4e88-bf4b-e60584f748fc","17th & Upshur St NW",38.942146,-77.038684,19,2024-12-04 10:13:44
"1950995089993550758","55th & East Capitol St NE",38.889926,-76.922783,12,2024-12-04 10:13:44
"2213781a-5c69-43eb-9b33-346d61e7e1ba","White Oak Rec Center",39.0461435,-76.9757228,15,2024-12-04 10:13:44
"0825b7cc-1f3f-11e7-bf6b-3863bb334450","King Farm Blvd & Piccard Dr",39.110314,-77.182669,15,2024-12-04 10:13:44
"0824a28b-1f3f-11e7-bf6b-3863bb334450","5th & F St NW",38.897222,-77.019347,31,2024-12-04 10:13:44
"7c790f6e-7889-4c3c-97d6-ffd37e68bb2d","16th & Bangor St SE",38.86044,-76.983585,15,2024-12-04 10:13:44
"0825b8f0-1f3f-11e7-bf6b-3863bb334450","Calvert St & Woodley Pl NW",38.923583,-77.050046,19,2024-12-04 10:13:44
"0825180e-1f3f-11e7-bf6b-3863bb334450","3000 Connecticut Ave NW / National Zoo",38.930282,-77.055599,15,2024-12-04 10:13:44
"a016ea6f-0d7f-45fb-b8ac-0cfe22cd972a","Eden Center",38.8738077185176,-77.1528491377831,12,2024-12-04 10:13:44
"199df30f-328b-48af-8627-952bd9d6fe7c","Rhode Island Ave & 39th St / Brentwood Arts Exchange",38.939271,-76.955047,15,2024-12-04 10:13:44
"08254d7e-1f3f-11e7-bf6b-3863bb334450","S Four Mile Run Dr & Walter Reed Dr",38.84736,-77.095431,12,2024-12-04 10:13:44
"141766fa-fa3b-4c61-8e46-a8673c910a0c","Mandeville Ln & Stovall St",38.802893,-77.072558,12,2024-12-04 10:13:44
"5b745524-d0d3-4197-8c69-0ad4e5761883","23rd & M St NW",38.905303,-77.050264,19,2024-12-04 10:13:44
"08252a00-1f3f-11e7-bf6b-3863bb334450","Wilson Blvd & N Quincy St",38.880012,-77.107854,15,2024-12-04 10:13:44
"08249fbc-1f3f-11e7-bf6b-3863bb334450","13th & H St NE",38.900426739881,-76.9882500171661,31,2024-12-04 10:13:44
"082614e4-1f3f-11e7-bf6b-3863bb334450","Langston Blvd & N Woodstock St",38.898301,-77.118009,19,2024-12-04 10:13:44
"0825388d-1f3f-11e7-bf6b-3863bb334450","21st St & Pennsylvania Ave NW",38.901539,-77.046564,19,2024-12-04 10:13:44
"08249b7f-1f3f-11e7-bf6b-3863bb334450","USDA / 12th & C St SW",38.8862769450651,-77.0282417535782,47,2024-12-04 10:13:44
"b554d2fc-8912-4730-b2cb-9a3e1a96b223","12th St & New York Ave NW",38.901104,-77.028061,27,2024-12-04 10:13:44
"8dfb34e2-7f75-4359-a374-5bf5e86c4793","Fairfax Dr & N Taylor St",38.882425,-77.112754,11,2024-12-04 10:13:44
"08261245-1f3f-11e7-bf6b-3863bb334450","Oklahoma Ave & D St NE",38.894474,-76.974828,19,2024-12-04 10:13:44
"30b5e0c1-7ca6-4050-8566-3fccf0b60890","9th & Ingraham St NW",38.95366314394,-77.0256131887436,19,2024-12-04 10:13:44
"2007431383556444258","Baltimore Avenue and Hotel Drive at UMD",38.986639,-76.936073,15,2024-12-04 10:13:44
"0825f1f7-1f3f-11e7-bf6b-3863bb334450","Rockville Metro West",39.084379,-77.146866,19,2024-12-04 10:13:44
"ae007456-14ad-4619-a92e-e3a40f93a412","16th & Harvard St NW",38.926102,-77.03665,19,2024-12-04 10:13:44
"cec05512-b9d1-4671-bc76-8b168079db93","Greenbelt Station Parkway",39.002459,-76.916243,11,2024-12-04 10:13:44
"de5bd592-0f48-4c6a-b7fc-8ff687c6e1a5","Columbus Ave & Gramercy Blvd",39.12333,-77.16486,11,2024-12-04 10:13:44
"0826518d-1f3f-11e7-bf6b-3863bb334450","Amherst Ave & Elkins St",39.044887,-77.047788,15,2024-12-04 10:13:44
"d325a449-32d7-488d-b746-9455ad003834","22nd & H St NW",38.8989254671684,-77.0488523839595,17,2024-12-04 10:13:44
"bcb21167-85ed-4374-8807-d9409aaa01a5","Hyattsville Library / Adelphi Rd & Toledo Rd",38.9698,-76.9493,15,2024-12-04 10:13:44
"08251c45-1f3f-11e7-bf6b-3863bb334450","Barcroft Community Center",38.8503365778844,-77.1009886264801,11,2024-12-04 10:13:44
"08258d95-1f3f-11e7-bf6b-3863bb334450","14th & Belmont St NW",38.921074,-77.031887,15,2024-12-04 10:13:44
"a8ffa826-a14d-4bb0-ab33-de6b8c34d190","Fillmore & Bisdorf",38.83863,-77.116206,11,2024-12-04 10:13:44
"4b55ad18-eb2e-47b5-aaeb-aefd6ad856fd","Pimmit Dr & Idyl Ln",38.897692,-77.207261,12,2024-12-04 10:13:44
"e07eed7c-2d2a-4f13-aff7-2be6500958f7","48th Pl & MacArthur Blvd NW",38.916561,-77.095513,15,2024-12-04 10:13:44
"0825baa3-1f3f-11e7-bf6b-3863bb334450","Deanwood Rec Center",38.908473,-76.933099,15,2024-12-04 10:13:44
"08253976-1f3f-11e7-bf6b-3863bb334450","Prince St & Union St",38.803124,-77.040363,19,2024-12-04 10:13:44
"2574f980-163e-4b9b-8107-6145615815b3","New Jersey Ave & H St SE",38.8807607259506,-77.0057407021523,19,2024-12-04 10:13:44
"0825f8da-1f3f-11e7-bf6b-3863bb334450","Mount Vernon Ave & E Nelson Ave",38.820064,-77.057619,16,2024-12-04 10:13:44
"08256e7b-1f3f-11e7-bf6b-3863bb334450","Independence Ave & L'Enfant Plaza SW/DOE",38.887332,-77.026141,23,2024-12-04 10:13:44
"0826233f-1f3f-11e7-bf6b-3863bb334450","Henry Bacon Dr & Lincoln Memorial Circle NW",38.890539,-77.049383,19,2024-12-04 10:13:44
"0825b27e-1f3f-11e7-bf6b-3863bb334450","Norfolk & Rugby Ave",38.990639,-77.100239,11,2024-12-04 10:13:44
"082486f0-1f3f-11e7-bf6b-3863bb334450","M St & New Jersey Ave SE",38.8762192324865,-77.0041689276695,17,2024-12-04 10:13:44
"174fc644-1a5a-4923-a8b5-373e0ad04525","N Pershing Dr & N Quebec St",38.874248,-77.104784,15,2024-12-04 10:13:44
"08265262-1f3f-11e7-bf6b-3863bb334450","Grandview & Blueridge Ave",39.043272,-77.053085,15,2024-12-04 10:13:44
"0825f4f2-1f3f-11e7-bf6b-3863bb334450","Langston Blvd & N Cleveland St",38.894941,-77.09169,15,2024-12-04 10:13:44
"08249ef2-1f3f-11e7-bf6b-3863bb334450","18th & M St NW",38.9050668745531,-77.0417788624763,27,2024-12-04 10:13:44
"e84a9c46-89ce-45dc-866f-fe8cbc50e88e","King St & N Pitt St",38.8048011316311,-77.0446756482124,15,2024-12-04 10:13:44
"0824aa39-1f3f-11e7-bf6b-3863bb334450","13th St & New York Ave NW",38.900283,-77.029822,27,2024-12-04 10:13:44
"1934706002043462112","Michigan Ave & Allison St NE",38.945068,-76.978783,15,2024-12-04 10:13:44
"08261ee4-1f3f-11e7-bf6b-3863bb334450","Radford & Osage St",38.828471,-77.086061,23,2024-12-04 10:13:44
"082492e1-1f3f-11e7-bf6b-3863bb334450","New Hampshire Ave & Ward Pl NW",38.9057107919073,-77.0473176240921,19,2024-12-04 10:13:44
"4f9000ec-e47e-494e-9b49-61e95b5a6f03","7th & S St NW",38.9141736399301,-77.0215952396393,19,2024-12-04 10:13:44
"0824799f-1f3f-11e7-bf6b-3863bb334450","14th & R St NW",38.913046,-77.032008,19,2024-12-04 10:13:44
"d8f65b11-57ec-4a9f-9b52-f5696e129f02","Riverdale Park Town Center",38.962119,-76.935578,17,2024-12-04 10:13:44
"08263b6d-1f3f-11e7-bf6b-3863bb334450","Library St & Freedom Dr",38.959633,-77.358741,15,2024-12-04 10:13:44
"0824739d-1f3f-11e7-bf6b-3863bb334450","Clark St & 26th St S",38.850688,-77.05152,12,2024-12-04 10:13:44
"08249a1c-1f3f-11e7-bf6b-3863bb334450","Eastern Market / 7th & North Carolina Ave SE",38.886952,-76.996806,15,2024-12-04 10:13:44
"ad6ec1ce-db22-47c1-acf3-507897d40725","American University East Campus",38.936298,-77.087128,19,2024-12-04 10:13:44
"54962348-19dd-47b8-a816-bce25eb658a1","Oklahoma Ave & Benning Rd NE",38.8974996,-76.9695094,19,2024-12-04 10:13:44
"08261407-1f3f-11e7-bf6b-3863bb334450","Connecticut Ave & Chevy Chase Lake Dr",38.994113,-77.076986,15,2024-12-04 10:13:44
"d1fd7121-67e3-46a9-b415-e84a565394f2","Kansas Ave & Longfellow St NW",38.958098,-77.013821,19,2024-12-04 10:13:44
"0826132d-1f3f-11e7-bf6b-3863bb334450","New York Ave & Hecht Ave NE",38.915604,-76.983683,23,2024-12-04 10:13:44
"08251532-1f3f-11e7-bf6b-3863bb334450","9th & Upshur St NW",38.9418,-77.0251,15,2024-12-04 10:13:44
"08250172-1f3f-11e7-bf6b-3863bb334450","18th St & Pennsylvania Ave NW",38.89968,-77.041539,27,2024-12-04 10:13:44
"1939176485434179842","Western Ave & Pinehurst Cir NW ",38.975739,-77.066409,15,2024-12-04 10:13:44
"08252414-1f3f-11e7-bf6b-3863bb334450","6th St & Indiana Ave NW",38.894573,-77.01994,19,2024-12-04 10:13:44
"0825756e-1f3f-11e7-bf6b-3863bb334450","Montgomery Ave & Waverly St ",38.983838,-77.09221,11,2024-12-04 10:13:44
"3735d025-7e82-467c-8844-29d08d66b0e4","Falls Church City Hall / Park Ave & Little Falls St",38.885434,-77.173605,12,2024-12-04 10:13:44
"082494e7-1f3f-11e7-bf6b-3863bb334450","13th & E St SE",38.8829154847676,-76.9879066944122,15,2024-12-04 10:13:44
"7af26d39-a3b4-4fb3-b5b2-3acd415b9bea","S Wakefield St & 28th St S",38.84404,-77.098093,15,2024-12-04 10:13:44
"66c82803-70e3-496f-9942-30e0936de3f5","1st St & Potomac Ave SE",38.871841,-77.00591,19,2024-12-04 10:13:44
"1917259953969440770","Seatrend Way & Topsails Ln",38.775639,-77.160014,12,2024-12-04 10:13:44
"889571f8-5774-4097-a31f-4b6e3f5b4381","First St & Fayette St",38.817019,-77.050105,16,2024-12-04 10:13:44
"0824791a-1f3f-11e7-bf6b-3863bb334450","15th & P St NW",38.9098006265519,-77.0344269275665,19,2024-12-04 10:13:44
"2260574d-dbc6-4416-9f8c-3e1fcc0d9f5b","S Pickett St & Shillings St",38.804486,-77.132334,15,2024-12-04 10:13:44
"082544b7-1f3f-11e7-bf6b-3863bb334450","39th & Veazey St NW",38.943837,-77.077078,15,2024-12-04 10:13:44
"082493a5-1f3f-11e7-bf6b-3863bb334450","3rd & H St NW",38.899408,-77.015289,15,2024-12-04 10:13:44
"0824927c-1f3f-11e7-bf6b-3863bb334450","1st & M St NE",38.905697,-77.005483,15,2024-12-04 10:13:44
"63fa246c-6bed-41f0-97eb-d2d7888c1db0","10th St & Spring Rd NW",38.936228,-77.027163,15,2024-12-04 10:13:44
"1900610962867255780","Westbranch Dr & Maitland St",38.927943,-77.220829,12,2024-12-04 10:13:44
"a41e5bd2-b599-4c47-a36f-31ffa2e2dd0b","Maine Ave & Water St SW",38.8767467718666,-77.0209448039532,19,2024-12-04 10:13:44
"0826533b-1f3f-11e7-bf6b-3863bb334450","North Shore Dr & Village Rd",38.970412,-77.340787,11,2024-12-04 10:13:44
"55fc40ce-5be9-4e45-9c84-daacced3c852","14th & D St SE",38.8840581,-76.9863852,19,2024-12-04 10:13:44
"082524a2-1f3f-11e7-bf6b-3863bb334450","N Veitch St & Key Blvd",38.893237,-77.086063,12,2024-12-04 10:13:44
"3dd9e864-a5fc-4c27-b18e-325226089293","Northwestern High School",38.975505,-76.952199,15,2024-12-04 10:13:44
"082572b6-1f3f-11e7-bf6b-3863bb334450","N Pershing Dr & N George Mason Dr",38.871822,-77.107906,11,2024-12-04 10:13:44
"1877753940179542324","44th St & New Mexico Ave NW",38.933899,-77.086263,19,2024-12-04 10:13:44
"1928837279316128558","Connecticut Ave & Ordway St NW / Cleveland Park Metro ",38.935842,-77.058468,15,2024-12-04 10:13:44
"08263f4a-1f3f-11e7-bf6b-3863bb334450","Reston YMCA",38.955314,-77.368416,15,2024-12-04 10:13:44
"0824833c-1f3f-11e7-bf6b-3863bb334450","4th & W St NE",38.919077,-77.000648,15,2024-12-04 10:13:44
"08251984-1f3f-11e7-bf6b-3863bb334450","M St & Pennsylvania Ave NW",38.905126,-77.056887,20,2024-12-04 10:13:44
"0825fa8b-1f3f-11e7-bf6b-3863bb334450","Court House Metro / 15th St & N Uhle St",38.890612,-77.084801,16,2024-12-04 10:13:44
"08249b10-1f3f-11e7-bf6b-3863bb334450","Benning Branch Library",38.894,-76.947974,11,2024-12-04 10:13:44
"08249e81-1f3f-11e7-bf6b-3863bb334450","Pennsylvania Ave & 8th St SE",38.884275,-76.994716,23,2024-12-04 10:13:44
"9b9156b3-51c3-44c8-af49-46e3f4dea30f","Park Pl & Rock Creek Church Rd NW",38.9371351676374,-77.0191249251366,19,2024-12-04 10:13:44
"d4e8307d-5fb2-4ece-a66a-1522b1ebf79c","Fleet St & Waterfront St",38.782633,-77.016059,15,2024-12-04 10:13:44
"0825bc56-1f3f-11e7-bf6b-3863bb334450","Eads St & 12th St S",38.862841,-77.054277,21,2024-12-04 10:13:44
"08247310-1f3f-11e7-bf6b-3863bb334450","Crystal Dr & 23rd St S",38.852929,-77.049723,17,2024-12-04 10:13:44
"082483c2-1f3f-11e7-bf6b-3863bb334450","10th & U St NW",38.9172,-77.0259,19,2024-12-04 10:13:44
"101824b5-2dd0-464c-bc7e-30481e00e6d7","18th & New Hampshire Ave NW",38.911268,-77.041829,19,2024-12-04 10:13:44
"c51f0090-a4f9-416d-a18b-6e0505b1dca1","Woody Ward Rec Center",38.879575,-76.926596,15,2024-12-04 10:13:44
"08261e06-1f3f-11e7-bf6b-3863bb334450","Connecticut Ave & Yuma St NW",38.947156,-77.065115,19,2024-12-04 10:13:44
"08259009-1f3f-11e7-bf6b-3863bb334450","10th St & Florida Ave NW",38.920387,-77.025672,19,2024-12-04 10:13:44
"08254a1e-1f3f-11e7-bf6b-3863bb334450","S Troy St & 26th St S",38.847977,-77.075104,12,2024-12-04 10:13:44
"1877540418168925068","School St & George Mason Blvd",38.837382,-77.30938,12,2024-12-04 10:13:44
"0826366d-1f3f-11e7-bf6b-3863bb334450","Westpark & Jones Branch Dr",38.924437,-77.217664,11,2024-12-04 10:13:44
"0824c29d-1f3f-11e7-bf6b-3863bb334450","Branch & Pennsylvania Ave SE",38.8692,-76.9599,15,2024-12-04 10:13:44
"5f060548-684b-469b-8825-66c80d77a874","Virginia Hospital Center",38.8879137724991,-77.1280145645141,15,2024-12-04 10:13:44
"08256742-1f3f-11e7-bf6b-3863bb334450","Gravelly Point",38.865029,-77.039511,17,2024-12-04 10:13:44
"97506e92-1d23-4396-8ec8-e1901ccc22fa","Citadel Ave & McGrath Blvd",39.049,-77.10933,15,2024-12-04 10:13:44
"082653a6-1f3f-11e7-bf6b-3863bb334450","Town Center Pkwy & Sunset Hills Rd",38.9551705980449,-77.3630940914154,11,2024-12-04 10:13:44
"08263d19-1f3f-11e7-bf6b-3863bb334450","Temporary Rd & Old Reston Ave",38.960084,-77.353414,11,2024-12-04 10:13:44
"33ae16de-ca5b-4253-9096-35ccae7bb8dd","Pennsylvania Ave & Park Ave",38.887403,-77.176992,12,2024-12-04 10:13:44
"08247a21-1f3f-11e7-bf6b-3863bb334450","14th St & Rhode Island Ave NW",38.9086,-77.0323,31,2024-12-04 10:13:44
"0825e0a1-1f3f-11e7-bf6b-3863bb334450","Veterans Pl & Pershing Dr ",38.997445,-77.023894,11,2024-12-04 10:13:44
"0825ba12-1f3f-11e7-bf6b-3863bb334450","Nannie Helen Burroughs Ave & 49th St NE",38.898536,-76.931862,11,2024-12-04 10:13:44
"082620fc-1f3f-11e7-bf6b-3863bb334450","4th St & Madison Dr NW",38.8904955,-77.0172465,31,2024-12-04 10:13:44
"0825c063-1f3f-11e7-bf6b-3863bb334450","Connecticut Ave & Tilden St NW",38.9411391565301,-77.061977237463,15,2024-12-04 10:13:44
"0824c0d5-1f3f-11e7-bf6b-3863bb334450","Bladensburg Rd & Benning Rd NE",38.900413,-76.982872,15,2024-12-04 10:13:44
"7fcbf92d-a257-4973-828b-181d5602eee5","15th & M St NW",38.905424,-77.034674,19,2024-12-04 10:13:44
"08256b2e-1f3f-11e7-bf6b-3863bb334450","3rd & Elm St NW",38.917622,-77.01597,15,2024-12-04 10:13:44
"0825f6b3-1f3f-11e7-bf6b-3863bb334450","Langston Blvd & N Scott St",38.897612,-77.080851,15,2024-12-04 10:13:44
"08258e2d-1f3f-11e7-bf6b-3863bb334450","3rd & Tingey St SE",38.87501,-77.0024,19,2024-12-04 10:13:44
"0824ee0d-1f3f-11e7-bf6b-3863bb334450","Wilson Blvd & N Uhle St",38.891696,-77.0846,15,2024-12-04 10:13:44
"082615b7-1f3f-11e7-bf6b-3863bb334450","King St Metro North / Cameron St",38.80704,-77.059817,15,2024-12-04 10:13:44
"0826256c-1f3f-11e7-bf6b-3863bb334450","Mount Vernon Ave & Bruce St",38.841291,-77.063093,15,2024-12-04 10:13:44
"082616fc-1f3f-11e7-bf6b-3863bb334450","Washington Blvd & N Frederick St",38.884829,-77.127671,11,2024-12-04 10:13:44
"fbd404e2-bd4c-464b-b0db-9eaa011a90ae","Chillum Rd & Riggs Rd / Riggs Plaza",38.961737,-76.995922,15,2024-12-04 10:13:44
"08262094-1f3f-11e7-bf6b-3863bb334450","Commonwealth Ave & E Monroe Ave",38.8200582335422,-77.0628207921982,15,2024-12-04 10:13:44
"08252c4a-1f3f-11e7-bf6b-3863bb334450","20th & L St NW",38.903584,-77.044789,19,2024-12-04 10:13:44
"0824c376-1f3f-11e7-bf6b-3863bb334450","New Hampshire Ave & T St NW",38.915544,-77.038252,23,2024-12-04 10:13:44
"0826242b-1f3f-11e7-bf6b-3863bb334450","Franklin St & S Washington St",38.798133,-77.0487,19,2024-12-04 10:13:44
"79ae0ec5-9bbd-41ee-a9e9-7753233b5e77","5th & Morse St NE",38.9072867732547,-76.9991666078568,19,2024-12-04 10:13:44
"065defed-8e90-46b9-a106-28d590704cf8","Long Bridge Aquatic Center",38.8705610456618,-77.0440949499607,12,2024-12-04 10:13:44
"e9611824-0245-4482-bc8b-970c0eface40","Stadium Armory Metro",38.8854825273407,-76.9771872460842,19,2024-12-04 10:13:44
"ce3db0b4-8c4f-4c6c-a059-73fff08c1edf","Westover Library / Washington Blvd & N McKinley Rd",38.886048,-77.142317,15,2024-12-04 10:13:44
"0825e5ff-1f3f-11e7-bf6b-3863bb334450","River Rd & Landy Ln",38.964992,-77.103381,19,2024-12-04 10:13:44
"7814989b-dc73-4a7e-bd23-f716b9abbbfe","7th St & Massachusetts Ave NE",38.89222,-76.99602,19,2024-12-04 10:13:44
"a6076d62-317a-40be-80a3-5654a042c20a","Alabama Ave & Stanton Rd SE / Shops at Park Village",38.84627,-76.98185,19,2024-12-04 10:13:44
"0825f465-1f3f-11e7-bf6b-3863bb334450","Duke St & John Carlyle St",38.804378,-77.060866,15,2024-12-04 10:13:44
"08247b29-1f3f-11e7-bf6b-3863bb334450","21st & I St NW",38.9007106254746,-77.0464485883713,35,2024-12-04 10:13:44
"08265638-1f3f-11e7-bf6b-3863bb334450","Columbia & Ontario Rd NW",38.924088,-77.040787,23,2024-12-04 10:13:44
"f69c2ab2-8d2b-493a-9da4-3a76d0e34753","Woodglen Dr & Executive Blvd",39.04317,-77.1135,16,2024-12-04 10:13:44
"0826547e-1f3f-11e7-bf6b-3863bb334450","18th & Monroe St NE",38.93293,-76.979517,19,2024-12-04 10:13:44
"1929517249726509974","GMU/Horizon Hall & Harris Theater",38.831211,-77.308069,15,2024-12-04 10:13:44
"bc1a59ac-f82d-44bd-9f2d-b5801f8bbb8d","King St & Kenwood Ave",38.824793,-77.085066,16,2024-12-04 10:13:44
"1884993950171398452","New Mexico & Cathedral Ave NW",38.930316,-77.083704,19,2024-12-04 10:13:44
"1872703318198888690","Fairfax Blvd & Pickett Rd North",38.865091,-77.271911,12,2024-12-04 10:13:44
"082543d4-1f3f-11e7-bf6b-3863bb334450","20th St & Virginia Ave NW",38.894722,-77.045128,15,2024-12-04 10:13:44
"13a88d55-7065-4bf0-9472-b78e8fafdfb3","District Ave & Strawberry Ln/Mosaic Market Garage",38.872642,-77.230632,15,2024-12-04 10:13:44
"343aa3f9-0b2f-4599-9854-81cbc04577f4","10th & Quincy St NE / Turkey Thicket Rec",38.937849,-76.993509,19,2024-12-04 10:13:44
"e9030e46-31bf-4def-befb-2e685ad48180","14th & Newton St NW",38.931991,-77.032956,19,2024-12-04 10:13:44
"082482b3-1f3f-11e7-bf6b-3863bb334450","19th & E Street NW",38.895734,-77.043368,11,2024-12-04 10:13:44
"082625d9-1f3f-11e7-bf6b-3863bb334450","Lee Center",38.797557,-77.053766,15,2024-12-04 10:13:44
"c645ddde-0156-47ab-9616-3121f541a6f0","Kansas Ave & Sherman Cr NW",38.9479617482224,-77.021549642086,19,2024-12-04 10:13:44
"39d08937-66b3-4fd8-89d0-49e5144f1922","Pimmit Dr & Los Pueblos Ln",38.900371,-77.205428,12,2024-12-04 10:13:44
"1890899353648060422","Tyco Rd & Boyd Pointe Way",38.930767,-77.241436,12,2024-12-04 10:13:44
"7995da4d-4d99-4797-bb9f-37a51a28cc09","North Capitol & K St NE",38.9024437250173,-77.0082458853722,19,2024-12-04 10:13:44
"1892762694406615240","Kingsbridge Dr & Draper Dr",38.8685447038803,-77.2820833792207,11,2024-12-04 10:13:44
"0825fa22-1f3f-11e7-bf6b-3863bb334450","Mount Vernon Ave & Kennedy St",38.833077,-77.059821,15,2024-12-04 10:13:44
"08263c43-1f3f-11e7-bf6b-3863bb334450","22nd St & Constitution Ave NW",38.892441,-77.048947,23,2024-12-04 10:13:44
"08264525-1f3f-11e7-bf6b-3863bb334450","Pooks Hill Rd & Linden Ave",39.014716,-77.107143,15,2024-12-04 10:13:44
"5982cdb9-2f4d-490f-8e7c-030adfac87be","W&OD Trail & Langston Blvd",38.88715,-77.16212,15,2024-12-04 10:13:44
"fd44b399-4a55-4bbe-a326-20d138a2f0eb","Vienna Metro South",38.877415,-77.270731,19,2024-12-04 10:13:44
"082603fc-1f3f-11e7-bf6b-3863bb334450","11th & S St NW",38.9136011751439,-77.0271152257919,23,2024-12-04 10:13:44
"e710493d-96af-49da-a8ed-8e3e7301c82c","Loughboro Rd & Dalecarlia Pkwy NW / Sibley Hospital",38.935839,-77.106913,19,2024-12-04 10:13:44
"d2a6b8ef-0d6d-4037-84e4-b905142031fa","Anacostia Roller Skating Pavilion",38.878771,-76.97093,19,2024-12-04 10:13:44
"0824e24c-1f3f-11e7-bf6b-3863bb334450","14th & G St NW",38.8981639641319,-77.0318976044655,23,2024-12-04 10:13:44
"ed8f70f3-15e3-448c-86c5-d27d87402ad3","Edgewood Rec Center",38.924144,-77.002098,15,2024-12-04 10:13:44
"08261fb3-1f3f-11e7-bf6b-3863bb334450","Kennebec St & 11th St N",38.880992,-77.135271,15,2024-12-04 10:13:44
"082654f4-1f3f-11e7-bf6b-3863bb334450","7th & E St SW",38.88345,-77.021741,19,2024-12-04 10:13:44
"0825b1a2-1f3f-11e7-bf6b-3863bb334450","Carroll & Ethan Allen Ave",38.977933,-77.006472,15,2024-12-04 10:13:44
"082634c6-1f3f-11e7-bf6b-3863bb334450","Westpark Dr & Leesburg Pike",38.92403,-77.235955,11,2024-12-04 10:13:44
"08261a52-1f3f-11e7-bf6b-3863bb334450","South Capitol & Atlantic St SW",38.831516,-77.008133,19,2024-12-04 10:13:44
"60e5f9b2-611b-4713-b34a-8ce2c2ee8ac8","3rd & M St SE",38.876823,-77.002161,23,2024-12-04 10:13:44
"3d461075-4edb-497f-89d7-b7beb7595b20","15th St & Pennsylvania Ave NW",38.8964647474865,-77.0333808660507,19,2024-12-04 10:13:44
"08261b21-1f3f-11e7-bf6b-3863bb334450","22nd & P ST NW",38.909394,-77.048728,19,2024-12-04 10:13:44
"08247f59-1f3f-11e7-bf6b-3863bb334450","Connecticut Ave & Macomb St NW / Cleveland Park",38.9336263491873,-77.0575301349163,11,2024-12-04 10:13:44
"08247baa-1f3f-11e7-bf6b-3863bb334450","Georgia & New Hampshire Ave NW",38.9366839345886,-77.0241808891296,19,2024-12-04 10:13:44
"0824e72a-1f3f-11e7-bf6b-3863bb334450","11th & F St NW",38.897857,-77.026975,15,2024-12-04 10:13:44
"1877158937567185816","South St & University Dr",38.844249,-77.305336,12,2024-12-04 10:13:44
"804fb759-1127-4059-a67a-c1fdd5d98082","Castle Blvd & Castle Ln",39.085314,-76.940547,19,2024-12-04 10:13:44
"0824741d-1f3f-11e7-bf6b-3863bb334450","19th St & Pennsylvania Ave NW",38.9003,-77.0429,15,2024-12-04 10:13:44
"08261620-1f3f-11e7-bf6b-3863bb334450","Madison St & N Henry St",38.813485,-77.049468,15,2024-12-04 10:13:44
"2015611830034989628","Half & I St SW ",38.879262,-77.011016,19,2024-12-04 10:13:44
"08251ded-1f3f-11e7-bf6b-3863bb334450","Fairfax Dr & Wilson Blvd",38.885801,-77.097745,12,2024-12-04 10:13:44
"1926924117062925284","33rd St & Wisconsin Ave NW",38.912181,-77.066074,19,2024-12-04 10:13:44
"08264392-1f3f-11e7-bf6b-3863bb334450","Carlin Springs Rd & N Thomas St",38.876695,-77.112982,15,2024-12-04 10:13:44
"08256a59-1f3f-11e7-bf6b-3863bb334450","3rd St & Pennsylvania Ave SE",38.887378,-77.001955,15,2024-12-04 10:13:44
"a7b98322-bdbb-421e-b2e4-1bb42ef9d01f","14th & Q St NW",38.910674,-77.03188,19,2024-12-04 10:13:44
"0824a43b-1f3f-11e7-bf6b-3863bb334450","15th St & New York Ave NW",38.8990323441632,-77.0333540439606,23,2024-12-04 10:13:44
"3dc3100e-7a4c-4d34-8b92-e820f1bd46a0","Capitol Heights Metro",38.888524,-76.913188,19,2024-12-04 10:13:44
"08251a1b-1f3f-11e7-bf6b-3863bb334450","15th St & Massachusetts Ave SE",38.88732,-76.983569,15,2024-12-04 10:13:44
"0248fa3b-6df4-4fdc-ae31-ee2e4d177da8","National Airport",38.852903,-77.045916,19,2024-12-04 10:13:44
"0825e31a-1f3f-11e7-bf6b-3863bb334450","Takoma Metro",38.975219,-77.016855,19,2024-12-04 10:13:44
"0826154d-1f3f-11e7-bf6b-3863bb334450","Saint Asaph St & Madison St",38.812718,-77.044097,15,2024-12-04 10:13:44
"082631cd-1f3f-11e7-bf6b-3863bb334450","14th & Irving St NW",38.928552,-77.032224,31,2024-12-04 10:13:44
"33efb11b-052f-437e-ab74-2e6b4661822d","W Columbia St & N Washington St",38.885621,-77.166917,12,2024-12-04 10:13:44
"0824cfe7-1f3f-11e7-bf6b-3863bb334450","25th St & Pennsylvania Ave NW",38.903827,-77.053485,15,2024-12-04 10:13:44
"4ae62d55-b4b3-47d7-ada9-79185e2be3b9","Grant Circle",38.942024743273,-77.0182210206985,19,2024-12-04 10:13:44
"08249aa2-1f3f-11e7-bf6b-3863bb334450","14th St & New York Ave NW",38.899632,-77.031686,31,2024-12-04 10:13:44
"5945c731-a300-46e6-8e51-3236ad1f65f2","Largo Rd & Campus Way / Prince Georges's Comm Col",38.88994,-76.825535,15,2024-12-04 10:13:44
"1b1fd2f7-bcbd-43a2-bed1-ddf8e3cc4614","Arizona Ave & MacArthur Blvd NW",38.927294,-77.103662,19,2024-12-04 10:13:44
"08252645-1f3f-11e7-bf6b-3863bb334450","Washington Blvd & 7th St N",38.88081,-77.090792,12,2024-12-04 10:13:44
"1929488700232798842","GMU/Rappahannock River Ln",38.834800104577,-77.3070565365999,12,2024-12-04 10:13:44
"72c402d9-63d9-4025-95a9-1577a34e5f52","Wilson Blvd & N Vermont St",38.8794766089543,-77.1145632863045,12,2024-12-04 10:13:44
"183f8ffb-756c-4271-8d9a-a5cde3f13116","South Dakota Ave & Bladensburg Rd NE",38.9252,-76.964896,15,2024-12-04 10:13:44
"1869388517211023780","Potomac Yard Metro South",38.833437,-77.047846,15,2024-12-04 10:13:44
"c271d265-76c8-49f9-9b3c-b9490fb97ac0","Hartland Rd & Harte Pl",38.878601,-77.222808,11,2024-12-04 10:13:44
"2f12b7e0-a0f1-49ed-92d8-784133ea9168","Wheaton Library & Community Rec Center",39.0473228,-77.0510969,11,2024-12-04 10:13:44
"0826029e-1f3f-11e7-bf6b-3863bb334450","Army Navy Dr & S Nash St",38.8621502452149,-77.0681208372116,11,2024-12-04 10:13:44
"08246d68-1f3f-11e7-bf6b-3863bb334450","Aurora Hills Cmty Ctr / 18th St & S Hayes St",38.857866,-77.05949,12,2024-12-04 10:13:44
"08247aa4-1f3f-11e7-bf6b-3863bb334450","20th & E St NW",38.8963,-77.045,15,2024-12-04 10:13:44
"4784f152-5012-49fc-b1bb-723a6d73aa09","2nd & V St SW / James Creek Marina",38.863743,-77.013814,19,2024-12-04 10:13:44
"0825467b-1f3f-11e7-bf6b-3863bb334450","Wakefield High School",38.8471290457426,-77.1125502884388,12,2024-12-04 10:13:44
"082633ec-1f3f-11e7-bf6b-3863bb334450","16th & Q St SE / Anacostia HS",38.870695,-76.982359,23,2024-12-04 10:13:44
"0824980b-1f3f-11e7-bf6b-3863bb334450","Anacostia Library",38.865784,-76.9784,11,2024-12-04 10:13:44
"3c6a1bf0-3aac-4406-990d-966cc8edca52","Reston Station Blvd & Sunset Hills Rd",38.946735,-77.331008,11,2024-12-04 10:13:44
"0825f946-1f3f-11e7-bf6b-3863bb334450","Mount Vernon Ave & E Del Ray Ave",38.82595,-77.058541,15,2024-12-04 10:13:44
"1901331776956725958","Sunrise Valley Dr & Roland Clarke Pl",38.949366,-77.350396,12,2024-12-04 10:13:44
"08249dad-1f3f-11e7-bf6b-3863bb334450","10th St & Constitution Ave NW",38.893028,-77.026013,47,2024-12-04 10:13:44
"0826502d-1f3f-11e7-bf6b-3863bb334450","Takoma Park Rec Center",38.98265,-76.988311,15,2024-12-04 10:13:44
"3ced143d-294e-4050-80a7-b40d76c42c0d","Executive Blvd & E Jefferson St",39.04873,-77.1257,15,2024-12-04 10:13:44
"a44778cc-274f-49d5-80dc-6e031113a7e3","Duke St & Jordan St",38.812187,-77.10994,16,2024-12-04 10:13:44
"08261c65-1f3f-11e7-bf6b-3863bb334450","14th & Girard St NW",38.925284,-77.032375,23,2024-12-04 10:13:44
"08250371-1f3f-11e7-bf6b-3863bb334450","4th & C St SW",38.8863719405453,-77.0177006721497,39,2024-12-04 10:13:44
"0099b016-32c9-4536-ac4c-dcc1a117bd95","41st St & Alabama Ave SE / Fort Davis Rec",38.870353,-76.945283,15,2024-12-04 10:13:44
"0825bbc6-1f3f-11e7-bf6b-3863bb334450","Arlington Blvd & Fillmore St",38.873755,-77.089233,11,2024-12-04 10:13:44
"08251e7d-1f3f-11e7-bf6b-3863bb334450","Wilson Blvd & N Quinn St",38.893993,-77.07857,17,2024-12-04 10:13:44
"336a1fe2-8e92-49ad-ab6a-c6c392d3edcd","Capitol Ave & Kendall St NE",38.910993,-76.985854,19,2024-12-04 10:13:44
"305ce636-23c1-42f3-a28b-8be4feca2e05","Congressional Ln & E Jefferson St",39.06219,-77.129235,15,2024-12-04 10:13:44
"99ddcd49-1312-4d80-8030-9bc2732deb5c","King Greenleaf Rec Center",38.876211,-77.012443,19,2024-12-04 10:13:44
"08263bd6-1f3f-11e7-bf6b-3863bb334450","Sunset Hills Rd & Discovery Square",38.95534,-77.357611,11,2024-12-04 10:13:44
"0824cb9b-1f3f-11e7-bf6b-3863bb334450","4th & D St NW / Judiciary Square",38.895344,-77.016106,15,2024-12-04 10:13:44
"0825bd74-1f3f-11e7-bf6b-3863bb334450","Friendship Blvd & Willard Ave",38.96115,-77.088659,19,2024-12-04 10:13:44
"08251d5a-1f3f-11e7-bf6b-3863bb334450","10th & K St NW",38.9024,-77.02622,23,2024-12-04 10:13:44
"08258b3f-1f3f-11e7-bf6b-3863bb334450","Friendship Hts Metro / Wisconsin Ave & Wisconsin Cir",38.961763,-77.085998,19,2024-12-04 10:13:44
"0825881b-1f3f-11e7-bf6b-3863bb334450","Silver Spring Metro / Colesville Rd & Wayne Ave",38.9952564412317,-77.0291242003441,19,2024-12-04 10:13:44
"1957669092295526720","Metro Park Dr & Walker Ln ",38.76843,-77.156504,12,2024-12-04 10:13:44
"0826373c-1f3f-11e7-bf6b-3863bb334450","Westpark & Park Run Dr",38.928854,-77.22518,11,2024-12-04 10:13:44
"99e66f13-6f03-4872-9f34-bcd92fe519fd","15th St & Constitution Ave NW",38.892244,-77.033234,20,2024-12-04 10:13:44
"082600d8-1f3f-11e7-bf6b-3863bb334450","Wilson Blvd & N Illinois St ",38.876528,-77.12712,15,2024-12-04 10:13:44
"08246e8c-1f3f-11e7-bf6b-3863bb334450","Pentagon Row Plaza / Army Navy Dr & Joyce St",38.8633135430125,-77.0634162425995,16,2024-12-04 10:13:44
"0824ff6e-1f3f-11e7-bf6b-3863bb334450","Clarendon Metro / Wilson Blvd & N Highland St",38.887010077223,-77.0952567458153,21,2024-12-04 10:13:44
"082528fb-1f3f-11e7-bf6b-3863bb334450","Glebe Rd & 11th St N",38.883921,-77.116817,12,2024-12-04 10:13:44
"08253ab7-1f3f-11e7-bf6b-3863bb334450","King St & Patrick St",38.805317,-77.049883,15,2024-12-04 10:13:44
"08246cd5-1f3f-11e7-bf6b-3863bb334450","Crystal Dr & 15th St S",38.861056,-77.049417,16,2024-12-04 10:13:44
"c77801a4-2795-4f72-825e-c02f8facb72f","New Hampshire & Lockwood",39.0391022,-76.9918237,19,2024-12-04 10:13:44
"d39e9b29-0ba7-453f-9f1e-b0a856d448b7","Wilson Blvd & N Troy St",38.892556,-77.082089,15,2024-12-04 10:13:44
"08254ffb-1f3f-11e7-bf6b-3863bb334450","Connecticut & Nebraska Ave NW",38.955016,-77.069956,23,2024-12-04 10:13:44
"c361d993-ebd8-4110-b10e-6bd2055fbe05","11th & V St NW",38.918199,-77.027171,18,2024-12-04 10:13:44
"0825275b-1f3f-11e7-bf6b-3863bb334450","Fairfax Dr & N Randolph St",38.882629,-77.109366,15,2024-12-04 10:13:44
"1996328198078007666","Eastern Market Metro",38.884181,-76.995358,32,2024-12-04 10:13:44
"d61b3881-e324-4c6d-aa92-849716c70b04","19th & Savannah St SE",38.84623,-76.97703,11,2024-12-04 10:13:44
"0825fca2-1f3f-11e7-bf6b-3863bb334450","17th & G St NW",38.898301,-77.039643,35,2024-12-04 10:13:44
"082516c1-1f3f-11e7-bf6b-3863bb334450","California St & Florida Ave NW",38.917761,-77.04062,19,2024-12-04 10:13:44
"44b6aaca-6a97-425c-9d95-93a1d836c22d","The Shoppes @ Burnt Mills",39.0313141,-77.0041217,19,2024-12-04 10:13:44
"1893304030462804528","Old Meadow Rd & Old Meadow Ln",38.9189880900412,-77.2124596097655,12,2024-12-04 10:13:44
"0824749f-1f3f-11e7-bf6b-3863bb334450","14th & V St NW",38.9177645,-77.032096,31,2024-12-04 10:13:44
"3f1dfbbd-7b34-4efd-91a3-60acad4cf42f","11th & C St SE",38.885908,-76.991476,19,2024-12-04 10:13:44
"79f2ceeb-df84-42dd-bf22-ceb9bc384af2","Arlington Blvd & Allen St",38.8663609,-77.1997883,12,2024-12-04 10:13:44
"0825f344-1f3f-11e7-bf6b-3863bb334450","Iwo Jima Memorial / Meade & 14th St N",38.88992,-77.071301,19,2024-12-04 10:13:44
"08247dd0-1f3f-11e7-bf6b-3863bb334450","19th & East Capitol St SE",38.8896,-76.9769,15,2024-12-04 10:13:44
"5f19b359-6bc4-45f6-bdcf-31352690e6ee","N Roosevelt St & Roosevelt Blvd",38.878085,-77.153953,12,2024-12-04 10:13:44
"f0d65475-a505-474b-a40f-2488459105ac","Riggs Rd & East West Hwy",38.9725,-76.9807,17,2024-12-04 10:13:44
"0824f08b-1f3f-11e7-bf6b-3863bb334450","Fairfax Village",38.86559,-76.952103,11,2024-12-04 10:13:44
"0824e7c1-1f3f-11e7-bf6b-3863bb334450","23rd & E St NW ",38.896104,-77.049882,19,2024-12-04 10:13:44
"0824854e-1f3f-11e7-bf6b-3863bb334450","20th St & Florida Ave NW",38.9154,-77.0446,15,2024-12-04 10:13:44
"f75a76bb-34fc-4ee3-81d9-f23d9867017d","Ridge Heights and Owl Cove Ln",38.933923,-77.331653,12,2024-12-04 10:13:44
"08256b90-1f3f-11e7-bf6b-3863bb334450","Rhode Island Ave & V St NE",38.918155,-77.004746,19,2024-12-04 10:13:44
"082612c1-1f3f-11e7-bf6b-3863bb334450","Maryland Ave & E St NE",38.8962260397813,-76.9927856326103,27,2024-12-04 10:13:44
"f4402219-23c9-43ce-8af4-62984ee9ab68","W Broad St & Little Falls St",38.883601,-77.173438,12,2024-12-04 10:13:44
"a62f9324-6f6e-4bdb-9206-3ca05517e607","10th St & Rhode Island Ave NE",38.922489197936,-76.9926702976227,19,2024-12-04 10:13:44
"fe755eaf-7f1f-48df-bc40-f51d2af775d1","10th & H St NE",38.899984,-76.992725,19,2024-12-04 10:13:44
"08263311-1f3f-11e7-bf6b-3863bb334450","24th & R St NE / National Arboretum",38.91263,-76.971923,19,2024-12-04 10:13:44
"0824f8a2-1f3f-11e7-bf6b-3863bb334450","Thomas Circle",38.9059,-77.0325,33,2024-12-04 10:13:44
"082546fc-1f3f-11e7-bf6b-3863bb334450","28th St & S Meade St",38.846222,-77.069275,15,2024-12-04 10:13:44
"5ac39643-b36d-415f-bbb4-1a5e2c61d98d","Whiting & Lane Dr",38.809709,-77.135788,15,2024-12-04 10:13:44
"1875304680551764838","University Dr & Democracy Ln",38.849411,-77.304435,12,2024-12-04 10:13:44
"0824f644-1f3f-11e7-bf6b-3863bb334450","Rhode Island & Connecticut Ave NW",38.9059956999911,-77.0398020744324,23,2024-12-04 10:13:44
"08251cd1-1f3f-11e7-bf6b-3863bb334450","N Veitch St & 20th St N",38.896923,-77.086502,16,2024-12-04 10:13:44
"082485e8-1f3f-11e7-bf6b-3863bb334450","7th St & Florida Ave NW",38.9161368480833,-77.0220029354095,15,2024-12-04 10:13:44
"199ecf43-3fcc-446e-8b91-e151e7ad617f","Arlington Blvd & Ft Myer Dr",38.890863,-77.074893,15,2024-12-04 10:13:44
"0824c8d2-1f3f-11e7-bf6b-3863bb334450","20th & O St NW / Dupont South",38.908905,-77.04478,19,2024-12-04 10:13:44
"08251bba-1f3f-11e7-bf6b-3863bb334450","N Quincy St & Glebe Rd",38.876393,-77.107735,12,2024-12-04 10:13:44
"08255427-1f3f-11e7-bf6b-3863bb334450","New Jersey Ave & R St NW",38.912659,-77.017669,15,2024-12-04 10:13:44
"08261b89-1f3f-11e7-bf6b-3863bb334450","East West Hwy & 16th St",38.995681,-77.038721,19,2024-12-04 10:13:44
"068e6359-1741-4240-9ed1-07a9038bc319","Perry & 35th St",38.936213,-76.960054,15,2024-12-04 10:13:44
"08249e19-1f3f-11e7-bf6b-3863bb334450","Kennedy Center",38.897293,-77.05557,19,2024-12-04 10:13:44
"5017ea72-2248-4ba8-af83-d9c9718b51e0","Madrillon Rd & Boss St",38.910016,-77.226266,12,2024-12-04 10:13:44
"0826359a-1f3f-11e7-bf6b-3863bb334450","Tysons Metro South",38.919475,-77.221179,11,2024-12-04 10:13:44
"0824a988-1f3f-11e7-bf6b-3863bb334450","34th St & Wisconsin Ave NW",38.916442,-77.0682,15,2024-12-04 10:13:44
"0541e06c-642c-4f31-9f24-19bfcbb8811d","Minnesota Ave & R St SE",38.8693365,-76.978519,19,2024-12-04 10:13:44
"08253e7e-1f3f-11e7-bf6b-3863bb334450","10th & E St NW",38.895914,-77.026064,15,2024-12-04 10:13:44
"0824960b-1f3f-11e7-bf6b-3863bb334450","Florida Ave & R St NW",38.9126,-77.0135,15,2024-12-04 10:13:44
"8aa43882-2e93-41fb-b55d-a6a15b5b446b","Baron Cameron Ave & North Hampton Ave",38.966344,-77.359341,12,2024-12-04 10:13:44
"08257239-1f3f-11e7-bf6b-3863bb334450","Arlington Mill Cmty Center / Columbia Pike & S Dinwiddie St",38.856319,-77.11153,15,2024-12-04 10:13:44
"082655cc-1f3f-11e7-bf6b-3863bb334450","Potomac & M St NW",38.905509,-77.065246,19,2024-12-04 10:13:44
"e581e0b6-51ea-416a-9ae7-6fe5219d7156","Twinbrook Metro",39.062041,-77.120776,14,2024-12-04 10:13:44
"1e196ee1-daa4-4fa6-b6f8-197b31e6d170","N Pitt St & Montgomery St",38.8140311140976,-77.0428168773651,15,2024-12-04 10:13:44
"0824c309-1f3f-11e7-bf6b-3863bb334450","13th & D St NE",38.894832,-76.987633,35,2024-12-04 10:13:44
"3900eddf-b06d-4763-af70-1126603508d0","8th & V St NW",38.917716,-77.022684,19,2024-12-04 10:13:44
"08247522-1f3f-11e7-bf6b-3863bb334450","11th & Kenyon St NW",38.929464,-77.027822,39,2024-12-04 10:13:44
"686c82c2-23fe-4c15-9c75-708f61de98c7","Reston Pkwy & Spectrum Dr",38.9642077410062,-77.3542803525925,11,2024-12-04 10:13:44
"08254f20-1f3f-11e7-bf6b-3863bb334450","Wisconsin Ave & O St NW",38.90849,-77.063586,19,2024-12-04 10:13:44
"0825fddc-1f3f-11e7-bf6b-3863bb334450","Joyce St & 16th St S",38.859254,-77.063275,15,2024-12-04 10:13:44
"08265563-1f3f-11e7-bf6b-3863bb334450","Shady Grove Metro East",39.121327,-77.164969,19,2024-12-04 10:13:44
"0825f58d-1f3f-11e7-bf6b-3863bb334450","Arlington Blvd & S George Mason Dr",38.869442,-77.104503,15,2024-12-04 10:13:44
"0825e27a-1f3f-11e7-bf6b-3863bb334450","Fort Totten Metro",38.952369,-77.002721,19,2024-12-04 10:13:44
"0824eb1b-1f3f-11e7-bf6b-3863bb334450","Wilson Blvd & Ft Myer Dr",38.8946,-77.072305,19,2024-12-04 10:13:44
"08249549-1f3f-11e7-bf6b-3863bb334450","17th & Corcoran St NW",38.9121,-77.0387,19,2024-12-04 10:13:44
"730f282a-2f5b-4fda-b82f-5c94b3d5a2a6","Greensboro & Pinnacle Dr",38.92245,-77.23034,13,2024-12-04 10:13:44
"3f177fa3-6267-4138-82b3-6b528d71d3b2","4th & G St SW",38.8811167250093,-77.0176993310452,19,2024-12-04 10:13:44
"0824c604-1f3f-11e7-bf6b-3863bb334450","Metro Center / 12th & G St NW",38.8983257424666,-77.0279587805271,39,2024-12-04 10:13:44
"b0cdb0b4-a4e5-47f2-90fd-f3f8266b809f","Virginia Theological Seminary",38.820152,-77.093879,11,2024-12-04 10:13:44
"1871684492868499562","Beech Dr at Draper Dr Park",38.866659,-77.282077,12,2024-12-04 10:13:44
"cdaa435b-2b99-442a-a274-d6682067ad88","West Hyattsville Metro",38.955349,-76.968084,17,2024-12-04 10:13:44
"0825fe4c-1f3f-11e7-bf6b-3863bb334450","Union Market",38.907908,-76.99707,23,2024-12-04 10:13:44
"1929488402496518868","GMU/Patriot Cir & York Dr",38.8275011894995,-77.3041574336025,12,2024-12-04 10:13:44
"0825bb32-1f3f-11e7-bf6b-3863bb334450","Hains Point/Buckeye & Ohio Dr SW",38.878433,-77.03023,17,2024-12-04 10:13:44
"08258785-1f3f-11e7-bf6b-3863bb334450","Maple & Ritchie Ave",38.983627,-77.006311,19,2024-12-04 10:13:44
"08263a37-1f3f-11e7-bf6b-3863bb334450","W&OD Trail & Explorer St/Reston Bus Station",38.957037,-77.359718,17,2024-12-04 10:13:44
"08249407-1f3f-11e7-bf6b-3863bb334450","3rd & D St SE",38.8851,-77.0023,15,2024-12-04 10:13:44
"08254a91-1f3f-11e7-bf6b-3863bb334450","S Four Mile Run Dr & Shirlington Rd",38.8444,-77.085931,12,2024-12-04 10:13:44
"0eae33bc-0b63-4120-ac4d-1e4ac729d524","Green Range Dr and Glade Dr",38.9371461860071,-77.3678684234619,12,2024-12-04 10:13:44
"082651f8-1f3f-11e7-bf6b-3863bb334450","Amherst Ave & Prichard Rd",39.035965,-77.048395,15,2024-12-04 10:13:44
"1cc6ee60-b82f-4264-a490-6c3e5e656ccd","8th Rd & S Frederick St",38.857049,-77.116339,12,2024-12-04 10:13:44
"50cce12f-505a-414c-8b58-5bd4204a385e","King St & W Braddock Rd",38.827674,-77.088985,15,2024-12-04 10:13:44
"08256ee8-1f3f-11e7-bf6b-3863bb334450","Hamlin & 7th St NE",38.927497,-76.997194,15,2024-12-04 10:13:44
"0825459a-1f3f-11e7-bf6b-3863bb334450","M St & Delaware Ave NE",38.905690963097,-77.0032006502151,23,2024-12-04 10:13:44
"08254e55-1f3f-11e7-bf6b-3863bb334450","S Kenmore St & 24th St S",38.848454,-77.084918,12,2024-12-04 10:13:44
"7a00f0f5-f757-4715-9e89-58253ac36de0","Columbia Pike & S George Mason Dr",38.8593056199823,-77.1020185947418,15,2024-12-04 10:13:44
"08249cd3-1f3f-11e7-bf6b-3863bb334450","21st & E St NW",38.8961140441491,-77.0466148853302,15,2024-12-04 10:13:44
"0825bf2b-1f3f-11e7-bf6b-3863bb334450","Washington Blvd & Walter Reed Dr ",38.873219,-77.082104,12,2024-12-04 10:13:44
"db81ad06-aad3-4e23-b2b9-05b39b41f8fc","Ridge Rd Community Center",38.8762274457515,-76.9409812695812,19,2024-12-04 10:13:44
"082641e3-1f3f-11e7-bf6b-3863bb334450","Sligo Ave & Carroll Ln",38.990874,-77.016311,15,2024-12-04 10:13:44
"b6ea8d82-3226-4aef-a1d2-78076110e718","Jones Branch Drive & Scotts Crossing Rd",38.928502,-77.215624,11,2024-12-04 10:13:44
"0824866e-1f3f-11e7-bf6b-3863bb334450","Eads St & 22nd St S",38.8543805151775,-77.0534116029739,15,2024-12-04 10:13:44
"5d8b76d9-ae82-464b-87f1-37553a9fec6c","9th St & Pennsylvania Ave NW",38.89428,-77.023979,27,2024-12-04 10:13:44
"08254770-1f3f-11e7-bf6b-3863bb334450","18th St & Wyoming Ave NW",38.918809,-77.041571,23,2024-12-04 10:13:44
"082526d1-1f3f-11e7-bf6b-3863bb334450","Ballston Metro / Stuart St & 9th St N",38.881044,-77.111768,23,2024-12-04 10:13:44
"523db239-4cfe-4d84-b8ff-60f1ad4d342c","Gatehouse Rd & Telestar Ct",38.868536,-77.225262,11,2024-12-04 10:13:44
"909f576d-3523-4646-aa26-900ba8c9cd13","Stewart Ln & Old Columbia Pike",39.0456521,-76.9854381,19,2024-12-04 10:13:44
"08259e6f-1f3f-11e7-bf6b-3863bb334450","Dennis Ave & Amherst Ave",39.0253871962363,-77.0445629954338,15,2024-12-04 10:13:44
"9029233f-84db-4f28-895d-8ecf727fb6d2","Columbus Ave & Tribeca St",39.1258281117703,-77.167059481144,11,2024-12-04 10:13:44
"0825fc3a-1f3f-11e7-bf6b-3863bb334450","15th & L St NW",38.903967,-77.034602,27,2024-12-04 10:13:44
"52ba8179-5dda-404f-abba-796b3f645434","Stewart & April",39.0449444,-76.9811552,19,2024-12-04 10:13:44
"0824920a-1f3f-11e7-bf6b-3863bb334450","Massachusetts Ave & Dupont Circle NW",38.9101,-77.0444,45,2024-12-04 10:13:44
"071dcbf5-3f1e-45e0-a4a5-8717adb8743f","Ridge Heights Rd & Seahawks Dr",38.936061,-77.337775,12,2024-12-04 10:13:44
"0824bc00-1f3f-11e7-bf6b-3863bb334450","Eckington Pl & Q St NE",38.91066,-77.004615,23,2024-12-04 10:13:44
"08249671-1f3f-11e7-bf6b-3863bb334450","8th & Eye St SE / Barracks Row",38.8792,-76.9953,11,2024-12-04 10:13:44
"1936546121234841642","South Dakota Ave & Decatur St NE ",38.948307,-76.991829,15,2024-12-04 10:13:44
"edb40673-8b68-4db1-b9bf-6cb7943fdb50","N Oak St & W Broad St",38.88837,-77.179832,12,2024-12-04 10:13:44
"08263885-1f3f-11e7-bf6b-3863bb334450","Town Center Pkwy & Bowman Towne Dr",38.962524,-77.361902,11,2024-12-04 10:13:44
"082554fb-1f3f-11e7-bf6b-3863bb334450","8th & F St NE",38.897274,-76.994749,23,2024-12-04 10:13:44
"08246f1f-1f3f-11e7-bf6b-3863bb334450","Crystal City Metro / 18th St & S Bell St",38.8577850981524,-77.0516976714134,19,2024-12-04 10:13:44
"0826190f-1f3f-11e7-bf6b-3863bb334450","Woodmont Ave & Strathmore St",38.979875,-77.093522,11,2024-12-04 10:13:44
"0826337e-1f3f-11e7-bf6b-3863bb334450","Division Ave & Foote St NE",38.897407,-76.925907,15,2024-12-04 10:13:44
"0cabc1c7-cf6f-4afd-9242-c011b77f6330","Valley Ave & Wheeler Rd SE",38.8366457817575,-76.9935888651526,19,2024-12-04 10:13:44
"0825e443-1f3f-11e7-bf6b-3863bb334450","Rolfe St & 9th St S",38.866471,-77.076131,11,2024-12-04 10:13:44
"082525bb-1f3f-11e7-bf6b-3863bb334450","15th St & N Scott St",38.89054,-77.08095,15,2024-12-04 10:13:44
"0825b983-1f3f-11e7-bf6b-3863bb334450","New Jersey Ave & N St NW/Dunbar HS",38.9073325611145,-77.0153604447842,19,2024-12-04 10:13:44
"e800b2e8-5d8c-4ca1-920b-9622fa2a87ea","12th & Varnum St NE",38.943596,-76.990157,15,2024-12-04 10:13:44
"08262027-1f3f-11e7-bf6b-3863bb334450","Commonwealth Ave & Oak St",38.812711,-77.061715,15,2024-12-04 10:13:44
"8a10969e-9861-4926-bda6-f0b58a0c253d","St. Elizabeths West Campus/DHS",38.853124,-77.005174,19,2024-12-04 10:13:44
"08254123-1f3f-11e7-bf6b-3863bb334450","Barton St & 10th St N",38.884961,-77.08777,12,2024-12-04 10:13:44
"0825f872-1f3f-11e7-bf6b-3863bb334450","Ballenger Ave & Dulaney St",38.802677,-77.063562,19,2024-12-04 10:13:44
"0825fd75-1f3f-11e7-bf6b-3863bb334450","18th & R St NW",38.912648,-77.041834,19,2024-12-04 10:13:44
"472d3644-c8f4-4912-ad84-79f11cee2e49","Rosslyn Metro / Wilson Blvd & N Moore St",38.8960869063187,-77.0714521408081,21,2024-12-04 10:13:44
"08261d35-1f3f-11e7-bf6b-3863bb334450","11th & O St NW",38.9084314608901,-77.0270884037018,23,2024-12-04 10:13:44
"c9760156-83bd-4a7d-9dfa-85d7ee463f62","Fort Lincoln Dr & 33rd Pl NE",38.9216413,-76.9556866,15,2024-12-04 10:13:44
"082521d3-1f3f-11e7-bf6b-3863bb334450","Washington Blvd & 10th St N",38.884734,-77.093485,15,2024-12-04 10:13:44
"08247ed8-1f3f-11e7-bf6b-3863bb334450","Marion Barry Ave & Naylor Rd SE",38.861663,-76.969184,19,2024-12-04 10:13:44
"08263241-1f3f-11e7-bf6b-3863bb334450","Vermont Ave & I St NW",38.901136451737,-77.0344510674477,25,2024-12-04 10:13:44
"08249c5a-1f3f-11e7-bf6b-3863bb334450","12th & Newton St NE",38.933668,-76.991016,11,2024-12-04 10:13:44
"0825b738-1f3f-11e7-bf6b-3863bb334450","King Farm Blvd & Pleasant Dr",39.114688,-77.171487,18,2024-12-04 10:13:44
"177f7198-8814-4068-b809-b6074346d2e9","Tanner Park",38.9112135945215,-77.0022565126419,19,2024-12-04 10:13:44
"eda09ed8-ca5e-4187-938c-3260cabdf82d","14th St & Luzon Ave NW",38.969489,-77.033509,19,2024-12-04 10:13:44
"32a59636-02e5-4c53-a437-020986923dca","Washington-Liberty High School / N Stafford St & Generals Way",38.888282,-77.111066,15,2024-12-04 10:13:44
"0824f16b-1f3f-11e7-bf6b-3863bb334450","Virginia Ave & C St NW",38.894112,-77.044334,15,2024-12-04 10:13:44
"08254ebb-1f3f-11e7-bf6b-3863bb334450","13th St & Eastern Ave",38.987,-77.029417,15,2024-12-04 10:13:44
"0824fb6c-1f3f-11e7-bf6b-3863bb334450","Wilson Blvd & N Franklin Rd",38.8904,-77.0889,12,2024-12-04 10:13:44
"0824b9cc-1f3f-11e7-bf6b-3863bb334450","8th & H St NW",38.8997,-77.023086,33,2024-12-04 10:13:44
"082632a8-1f3f-11e7-bf6b-3863bb334450","Wisconsin Ave & Brandywine St NW",38.949813,-77.080217,25,2024-12-04 10:13:44
"5f71434d-dc5c-45ff-8219-708a3d9a0691","1st & M St SE",38.876893,-77.006072,39,2024-12-04 10:13:44
"082564e2-1f3f-11e7-bf6b-3863bb334450","Alabama & MLK Ave SE",38.8432298873083,-76.9993758201599,11,2024-12-04 10:13:44
"082617d2-1f3f-11e7-bf6b-3863bb334450","16th & Irving St NW",38.928893,-77.03625,19,2024-12-04 10:13:44
"efe6a4e1-5900-46d6-9755-db074f87c5c2","Woodley Park Metro / Calvert St & Connecticut Ave NW",38.923389,-77.051833,23,2024-12-04 10:13:44
"68bb0313-ccdb-4930-98ba-96d77ec986ef","Rockville Pike & Old Georgetown Rd",39.049765,-77.11368,15,2024-12-04 10:13:44
"08252a92-1f3f-11e7-bf6b-3863bb334450","GMU/Fairfax Dr & Kenmore St",38.8847027157574,-77.1003019809723,15,2024-12-04 10:13:44
"08254c82-1f3f-11e7-bf6b-3863bb334450","Columbia Pike & Monroe St",38.8603439109372,-77.0936715602875,12,2024-12-04 10:13:44
"08247632-1f3f-11e7-bf6b-3863bb334450","Adams Mill & Columbia Rd NW",38.9228491613136,-77.0425245165825,19,2024-12-04 10:13:44
"082476ba-1f3f-11e7-bf6b-3863bb334450","14th & Harvard St NW",38.9268,-77.0322,19,2024-12-04 10:13:44
"d49c5d1b-d02b-4c35-b60d-ed3cc6d51479","Half & Water St SW",38.866277,-77.010551,15,2024-12-04 10:13:44
"9f86df22-57d4-498a-ab35-2d3fb76e4723","N. Beauregard St. & Berkley St.",38.84154815913,-77.1077343821526,19,2024-12-04 10:13:44
"08253908-1f3f-11e7-bf6b-3863bb334450","19th & I St NW",38.9016332458155,-77.0433855056763,23,2024-12-04 10:13:44
"082549b0-1f3f-11e7-bf6b-3863bb334450","14th St & Colorado Ave NW",38.956432,-77.032947,19,2024-12-04 10:13:44
"08258395-1f3f-11e7-bf6b-3863bb334450","Cordell & Norfolk Ave",38.98954,-77.098029,11,2024-12-04 10:13:44
"c139589c-fe21-4834-a2a1-5528f7dd2152","Braddock Rd Metro South",38.813474,-77.053734,19,2024-12-04 10:13:44
"48ca5477-32a2-485d-961d-5371f2d1d5e1","Dunn Loring Metro",38.8828,-77.2283,19,2024-12-04 10:13:44
"5d8d5182-ea42-49ec-8cae-8891759f5751","Ridge Rd & Southern Ave SE",38.872976,-76.935246,15,2024-12-04 10:13:44
"1873077316413198460","Layton Hall Dr & University Dr",38.850932,-77.302732,12,2024-12-04 10:13:44
"2004427045420044368","Bowdoin Ave & Calvert Rd/ College Park Station",38.978103,-76.928879,11,2024-12-04 10:13:44
"c778c501-ba47-479b-b652-831432ffd74f","1st & S Capitol St SE / Oxon Run Trail",38.824481,-77.005497,19,2024-12-04 10:13:44
"cd1394fa-9d06-4665-bd1c-d7580d97a550","11th & Girard St NW",38.925642,-77.027131,19,2024-12-04 10:13:44
"a10f8bfa-1324-411c-b358-3fbd94eff32b","9th & G St NW",38.898097,-77.023924,15,2024-12-04 10:13:44
"0825bfcd-1f3f-11e7-bf6b-3863bb334450","TJ Cmty Ctr / 2nd St & S Old Glebe Rd",38.869418,-77.095596,12,2024-12-04 10:13:44
"082515d4-1f3f-11e7-bf6b-3863bb334450","1st & Rhode Island Ave NW",38.915417,-77.012289,15,2024-12-04 10:13:44
"08249f58-1f3f-11e7-bf6b-3863bb334450","Tenleytown / Wisconsin Ave & Albemarle St NW",38.947607,-77.079382,15,2024-12-04 10:13:44
"599f7a69-823e-419a-b70e-8f9666dd4bd1","S Jordan St & Venable St",38.811361,-77.109975,15,2024-12-04 10:13:44
"08247cac-1f3f-11e7-bf6b-3863bb334450","John McCormack Rd & Michigan Ave NE",38.9346,-76.9955,11,2024-12-04 10:13:44
"90682a3e-9cb2-43d1-b104-61c50043d35b","Oak Leaf & Lockwood",39.0379809,-76.9945391,19,2024-12-04 10:13:44
"fc64c842-980f-40be-a4b6-7750a28ecc19","Tanger Outlets",38.7968,-77.0026,15,2024-12-04 10:13:44
"0826168f-1f3f-11e7-bf6b-3863bb334450","Medical Center Metro ",38.999378,-77.097882,19,2024-12-04 10:13:44
"880978b9-5084-4576-a206-8d94cdbf4427","Massachusetts Ave & 6th St NE",38.892875,-76.998413,19,2024-12-04 10:13:44
"08263601-1f3f-11e7-bf6b-3863bb334450","Tysons Metro North",38.920939,-77.222115,15,2024-12-04 10:13:44
"1926601045514275106","9th & N St NW ",38.906622,-77.023885,23,2024-12-04 10:13:44
"96ce48cf-5d98-4dfb-86b1-f461230cd193","New Jersey Ave & F St NW",38.897108,-77.011616,33,2024-12-04 10:13:44
"0824a68f-1f3f-11e7-bf6b-3863bb334450","Maine Ave & 7th St SW",38.878693599397,-77.0230543613434,21,2024-12-04 10:13:44
"ce78d5f4-486a-4a64-8518-5a10bfd7ef94","Blueridge Ave & Elkin St",39.04313,-77.05006,15,2024-12-04 10:13:44
"08251f03-1f3f-11e7-bf6b-3863bb334450","1st & I St SE",38.8788543780633,-77.0057272911072,23,2024-12-04 10:13:44
"08252387-1f3f-11e7-bf6b-3863bb334450","George Mason Dr & Wilson Blvd",38.87887,-77.1207,15,2024-12-04 10:13:44
"082496d9-1f3f-11e7-bf6b-3863bb334450","Ward Circle / American University",38.938736,-77.087171,15,2024-12-04 10:13:44
"1b02c95b-63f9-41cd-8c0d-90334a29c7ce","Main Line Blvd & E Glebe",38.832431,-77.049772,19,2024-12-04 10:13:44
"1917259365558921792","Charles Arrington Dr & Manchester Lakes Dr ",38.766844,-77.150359,12,2024-12-04 10:13:44
"08249345-1f3f-11e7-bf6b-3863bb334450","17th & K St NW",38.90276,-77.03863,23,2024-12-04 10:13:44
"0d183ef3-5510-4afd-8e0d-8d240d119255","Westbranch & Jones Branch Dr",38.931089,-77.220729,12,2024-12-04 10:13:44
"082495aa-1f3f-11e7-bf6b-3863bb334450","Van Ness Metro / UDC",38.944551,-77.063896,15,2024-12-04 10:13:44
"5a3453ad-43af-495d-ba1f-e8be6b66e2e8","Anacostia Ave & East Capitol St NE",38.890461,-76.96128,19,2024-12-04 10:13:44
"0825f9b6-1f3f-11e7-bf6b-3863bb334450","Monroe Ave & Leslie Ave",38.820932,-77.053096,15,2024-12-04 10:13:44
"08254215-1f3f-11e7-bf6b-3863bb334450","12th St N & N Pierce St",38.887659,-77.07592,11,2024-12-04 10:13:44
"08251aba-1f3f-11e7-bf6b-3863bb334450","Congress Heights Metro",38.844711,-76.987823,15,2024-12-04 10:13:44
"08252874-1f3f-11e7-bf6b-3863bb334450","14th St & Marion Barry Ave SE",38.866611,-76.985238,15,2024-12-04 10:13:44
"0825bce9-1f3f-11e7-bf6b-3863bb334450","Old Georgetown Rd & Southwick St",38.999634,-77.109647,19,2024-12-04 10:13:44
"a826e5d0-8ee8-41a4-8c1d-1a2ad7212dec","Park Run & Onyx Dr",38.92755,-77.226644,11,2024-12-04 10:13:44
"08259091-1f3f-11e7-bf6b-3863bb334450","Potomac Ave & 8th St SE",38.876737,-76.994468,15,2024-12-04 10:13:44
"8d485a67-09d5-4550-8438-f1fa2f463bc2"," S Scott St & 13th St S",38.862862,-77.07716,11,2024-12-04 10:13:44
"082619e1-1f3f-11e7-bf6b-3863bb334450","1st & O St NW",38.908643,-77.012365,15,2024-12-04 10:13:44
"082548ce-1f3f-11e7-bf6b-3863bb334450","Georgia Ave & Emerson St NW",38.949662,-77.027333,19,2024-12-04 10:13:44
"3c8cebaf-4155-47d8-8272-9d65831f33b8","Baltimore Ave & Van Buren St / Riverdale Park Station",38.969581,-76.937349,17,2024-12-04 10:13:44
"08261977-1f3f-11e7-bf6b-3863bb334450","14th & L St NW",38.903658,-77.031737,19,2024-12-04 10:13:44
"71686e8c-9f47-4a65-8840-c7276be3786e","S Wayne St and 9th St S",38.864694,-77.082491,15,2024-12-04 10:13:44
"08264097-1f3f-11e7-bf6b-3863bb334450","Georgia Ave & Piney Branch Rd NW",38.967505,-77.027976,15,2024-12-04 10:13:44
"08254f8e-1f3f-11e7-bf6b-3863bb334450","Roosevelt Island",38.896553,-77.06714,17,2024-12-04 10:13:44
"082638f2-1f3f-11e7-bf6b-3863bb334450","Greensboro Metro East",38.9206872668517,-77.233165204525,15,2024-12-04 10:13:44
"84223eb6-9964-4bd7-85f0-2b6a316c3ba1","Vy Reston Heights",38.949008,-77.355299,11,2024-12-04 10:13:44
"0825b6a9-1f3f-11e7-bf6b-3863bb334450","Fenton St & Ellsworth Dr ",38.997033,-77.025608,15,2024-12-04 10:13:44
"08256549-1f3f-11e7-bf6b-3863bb334450","Pleasant St & MLK Ave SE",38.863897,-76.990037,11,2024-12-04 10:13:44
"1e19ca16-ec12-48b9-bbbe-fe878745bb23","11th & Park Rd NW",38.9313218587456,-77.0282471179962,19,2024-12-04 10:13:44
"314fc12d-7275-4936-a245-a1febd3c95df","1st & L St NW",38.903819,-77.011987,19,2024-12-04 10:13:44
"0825802a-1f3f-11e7-bf6b-3863bb334450","Norfolk Ave & Fairmont St",38.988562,-77.096539,11,2024-12-04 10:13:44
"1936549598369980886","25th & S St SE ",38.868356,-76.970997,12,2024-12-04 10:13:44
"08251f93-1f3f-11e7-bf6b-3863bb334450","39th & Calvert St NW / Stoddert",38.922649,-77.077271,19,2024-12-04 10:13:44
"08263b08-1f3f-11e7-bf6b-3863bb334450","Wiehle-Reston Metro South",38.946607921215,-77.3393914103508,19,2024-12-04 10:13:44
"197e33c5-30cf-4007-b7a8-b9b1dfd064e3","3rd & N St NE",38.907073,-77.002109,11,2024-12-04 10:13:44
"47ea64ba-00cd-4762-a90c-240244d1e4c8","17th St & New York Ave NW",38.896604,-77.039778,15,2024-12-04 10:13:44
"0825697c-1f3f-11e7-bf6b-3863bb334450","N Pershing Dr & N Wayne St",38.880705,-77.08596,11,2024-12-04 10:13:44
"bc4fc3e2-2050-4571-851b-47f062319f95","Olde Crafts Dr and Cartwright Pl",38.938797,-77.354067,12,2024-12-04 10:13:44
"082553a7-1f3f-11e7-bf6b-3863bb334450","8th & East Capitol St NE",38.889988,-76.995193,11,2024-12-04 10:13:44
"082618a7-1f3f-11e7-bf6b-3863bb334450","Lyttonsville Rd & Lyttonsville Pl",38.999679,-77.051168,15,2024-12-04 10:13:44
"b053927b-0761-40d0-a3ff-8a63fa1c7141","Rockville Pike & Rose Ave",39.051022,-77.115438,15,2024-12-04 10:13:44
"8429af9f-3adc-4db6-b96a-7fd9c75fe3a3","21st St & G st NW",38.8983017366725,-77.0469126105309,19,2024-12-04 10:13:44
"08249be7-1f3f-11e7-bf6b-3863bb334450","Georgetown Harbor / 30th St NW",38.9022678012637,-77.0591166615486,19,2024-12-04 10:13:44
"08255561-1f3f-11e7-bf6b-3863bb334450","18th St & Rhode Island Ave NE",38.927095,-76.978924,15,2024-12-04 10:13:44
"1885353633083910806","Massachusetts & Idaho Ave NW",38.931349,-77.077214,19,2024-12-04 10:13:44
"d8a01502-8d6c-449f-852d-d6b409e56e11","Hardy Rec Center",38.9097008620447,-77.0856463909149,17,2024-12-04 10:13:44
"0825176c-1f3f-11e7-bf6b-3863bb334450","Benning Rd & East Capitol St NE / Benning Rd Metro",38.889935,-76.93723,19,2024-12-04 10:13:44
"9c8b35b2-fcab-4142-957d-5bb845374685","Glade Dr & Pinecrest Rd/Cathy Hudgins Cmty Ctr",38.941496,-77.366499,12,2024-12-04 10:13:44
"1872701449888114846","Fairfax Blvd & Pickett Rd South",38.86476,-77.271483,12,2024-12-04 10:13:44
"08264250-1f3f-11e7-bf6b-3863bb334450","15th & W St NW",38.9190185,-77.034449,19,2024-12-04 10:13:44
"08247e59-1f3f-11e7-bf6b-3863bb334450","Park Rd & Holmead Pl NW",38.9308,-77.0315,35,2024-12-04 10:13:44
"1880134928431421876","Wisconsin Ave & Upton St NW",38.941808,-77.07643,15,2024-12-04 10:13:44
"2005163140164225490","Guilford Drive & Rowalt Drive / UMD",38.978008,-76.939269,15,2024-12-04 10:13:44
"0825b42a-1f3f-11e7-bf6b-3863bb334450","Fleet St & Ritchie Pkwy",39.076331,-77.141378,15,2024-12-04 10:13:44
"55d3b43f-4ad3-4d65-889a-560ebe6126bf","National Harbor Carousel",38.7859,-77.0167,15,2024-12-04 10:13:44
"0825feb6-1f3f-11e7-bf6b-3863bb334450","Langston Blvd & N Monroe St",38.896456,-77.104562,15,2024-12-04 10:13:44
"082566d7-1f3f-11e7-bf6b-3863bb334450","S George Mason Dr & S Four Mile Run Dr",38.852248,-77.105022,11,2024-12-04 10:13:44
"0825b10b-1f3f-11e7-bf6b-3863bb334450","Carroll & Westmoreland Ave",38.975,-77.01121,15,2024-12-04 10:13:44
"0825e147-1f3f-11e7-bf6b-3863bb334450","Rockville Metro East",39.085394,-77.145803,13,2024-12-04 10:13:44
"08253e02-1f3f-11e7-bf6b-3863bb334450","24th & N St NW",38.9066,-77.05152,15,2024-12-04 10:13:44
"0824e189-1f3f-11e7-bf6b-3863bb334450","36th & Calvert St NW / Glover Park",38.922581,-77.070334,15,2024-12-04 10:13:44
"0825548f-1f3f-11e7-bf6b-3863bb334450","15th & East Capitol St NE",38.889908,-76.983326,11,2024-12-04 10:13:44
"1936548863063266016","34th St & Minnesota Ave SE",38.883843,-76.957511,12,2024-12-04 10:13:44
"082498ac-1f3f-11e7-bf6b-3863bb334450","Pennsylvania & Minnesota Ave SE",38.873057,-76.971015,11,2024-12-04 10:13:44
"8321ef62-caa3-45ea-95b2-4a4a97964625","King St & Peyton St",38.806002,-77.055911,16,2024-12-04 10:13:44
"66cac629-904e-4186-8431-44983be40985","Fishers Ln & Rock Creek Mill Rd",39.0629,-77.113454,15,2024-12-04 10:13:44
"0825fff6-1f3f-11e7-bf6b-3863bb334450","19th & G St NW",38.898412,-77.043182,23,2024-12-04 10:13:44
"0824c80d-1f3f-11e7-bf6b-3863bb334450","17th & K St NW / Farragut Square",38.902061,-77.038322,39,2024-12-04 10:13:44
"08261aba-1f3f-11e7-bf6b-3863bb334450","18th & C St NW",38.893511,-77.041544,19,2024-12-04 10:13:44
"8e3245e2-f310-4173-9c2d-9ad00587a23c","Wheeler Ave & S. Floyd St.",38.808161,-77.100796,12,2024-12-04 10:13:44
"c7402dc0-b498-47b0-8977-2b9d671a62bb","Wisconsin Ave & Rodman St NW",38.9396741720217,-77.0752769708633,23,2024-12-04 10:13:44
"0824973c-1f3f-11e7-bf6b-3863bb334450","Wisconsin Ave & Newark St NW",38.934881,-77.072755,19,2024-12-04 10:13:44
"eab74a15-a9dd-4813-a6a9-c445782f6920","Stanton Square SE",38.855004,-76.984512,19,2024-12-04 10:13:44
"3d88e01e-e071-4638-829c-543410cded50","7th & K St NE",38.902594,-76.995141,15,2024-12-04 10:13:44
"0824a623-1f3f-11e7-bf6b-3863bb334450","C & O Canal & Wisconsin Ave NW",38.90375,-77.06269,23,2024-12-04 10:13:44
"772ca14a-a964-4745-ab93-37cc472d8ff2","Southern Ave Metro",38.840107,-76.9753,15,2024-12-04 10:13:44
"5205f20c-ded8-4469-bafd-021bc7229295","11th & Clifton St NW",38.920981,-77.027118,19,2024-12-04 10:13:44
"0825962a-1f3f-11e7-bf6b-3863bb334450","Needwood Rd & Eagles Head Ct",39.123513,-77.15741,15,2024-12-04 10:13:44
"0824c69b-1f3f-11e7-bf6b-3863bb334450","14th & D St NW / John A Wilson Building",38.894514,-77.031617,25,2024-12-04 10:13:44
"082642bd-1f3f-11e7-bf6b-3863bb334450","12th St & Pennsylvania Ave SE",38.882489,-76.990121,19,2024-12-04 10:13:44
"9a93cdb5-bd4e-43b8-87f3-81dc9063999f","4th & M St SE",38.876751,-77.000736,19,2024-12-04 10:13:44
"72b359a7-f70e-4b97-aaf6-2b26f09f19b1","Mississippi Ave & 19th St SE / THEARC",38.84377,-76.97557,19,2024-12-04 10:13:44
"08259804-1f3f-11e7-bf6b-3863bb334450","East West Hwy & Blair Mill Rd",38.990249,-77.02935,15,2024-12-04 10:13:44
"082469cc-1f3f-11e7-bf6b-3863bb334450","Eads St & 15th St S",38.859751,-77.053235,15,2024-12-04 10:13:44
"5efd5ecc-a734-4e7b-9142-a500a317df60","Baltimore Ave & Jefferson St",38.95548,-76.940133,15,2024-12-04 10:13:44
"0824821f-1f3f-11e7-bf6b-3863bb334450","MLK & Marion Barry Ave SE",38.867373,-76.988039,11,2024-12-04 10:13:44
"f33b7c9d-11ff-4059-94e4-4a1206acd7a6","Maine Ave & 9th St SW",38.88044,-77.025236,15,2024-12-04 10:13:44
"08247d46-1f3f-11e7-bf6b-3863bb334450","5th & K St NW",38.902734,-77.019181,23,2024-12-04 10:13:44
"50a19df9-344a-49e6-aeab-f244d9a333c8","Jones Branch Dr & Blyton St",38.926973,-77.217376,12,2024-12-04 10:13:44
"08260549-1f3f-11e7-bf6b-3863bb334450","8th & O St NW",38.90864,-77.02277,19,2024-12-04 10:13:44
"30c5787e-6fdb-421d-8eaf-32e652dbeae2","Rhode Island & Montana Ave NE",38.924492,-76.985133,15,2024-12-04 10:13:44
"1874574408754907832","George Mason Blvd & Armstrong St",38.841099,-77.30718,12,2024-12-04 10:13:44
"082565f9-1f3f-11e7-bf6b-3863bb334450","Neal St & Trinidad Ave NE",38.903732,-76.987211,15,2024-12-04 10:13:44
"08246c35-1f3f-11e7-bf6b-3863bb334450","Crystal Dr & 20th St S",38.856425,-77.049232,17,2024-12-04 10:13:44
"65c9578a-8bda-4908-b626-06371c09338b","Merrifield Cinema & Merrifield Town Center",38.870093,-77.22997,15,2024-12-04 10:13:44
"a0121df5-4df5-425f-afb8-77dc94dc6d1b","Reston Pkwy & Bennington Woods Rd",38.973625,-77.351837,12,2024-12-04 10:13:44
"08247052-1f3f-11e7-bf6b-3863bb334450","Crystal Dr & 27th St S",38.848466,-77.051514,12,2024-12-04 10:13:44
"0824979f-1f3f-11e7-bf6b-3863bb334450","14th St Heights / 14th & Crittenden St NW",38.947774,-77.032818,11,2024-12-04 10:13:44
"0826030a-1f3f-11e7-bf6b-3863bb334450","Thomas Jefferson St NW & Water/K St NW",38.902826,-77.060173,19,2024-12-04 10:13:44
"0824bc70-1f3f-11e7-bf6b-3863bb334450","6th & H St NE",38.899972,-76.998347,23,2024-12-04 10:13:44
"0826315d-1f3f-11e7-bf6b-3863bb334450","Potomac Ave & Swann Ave",38.829545,-77.047844,19,2024-12-04 10:13:44
"0825fd09-1f3f-11e7-bf6b-3863bb334450","Spring St & 2nd Ave",38.997653,-77.034499,15,2024-12-04 10:13:44
"08253c00-1f3f-11e7-bf6b-3863bb334450","Henry St & Pendleton St",38.811456,-77.050276,17,2024-12-04 10:13:44
"08264325-1f3f-11e7-bf6b-3863bb334450","3rd St & Riggs Rd NE",38.957463,-77.002239,15,2024-12-04 10:13:44
"08261ccf-1f3f-11e7-bf6b-3863bb334450","Potomac Ave & Main Line Blvd",38.822738,-77.049265,19,2024-12-04 10:13:44
"0824cd3d-1f3f-11e7-bf6b-3863bb334450","19th St & Constitution Ave NW",38.8922123527148,-77.0430743694305,35,2024-12-04 10:13:44
"082539e0-1f3f-11e7-bf6b-3863bb334450","Market Square / King St & Royal St",38.804718,-77.043363,15,2024-12-04 10:13:44
"0825f807-1f3f-11e7-bf6b-3863bb334450","Potomac Greens Dr & Slaters Ln",38.82175,-77.047494,11,2024-12-04 10:13:44
"0825ff20-1f3f-11e7-bf6b-3863bb334450","21st St & N Pierce St",38.898984,-77.078317,16,2024-12-04 10:13:44
"b8b6903d-fabc-48aa-af9b-2c5fb29344b9","1st & K St NE",38.902386,-77.005649,17,2024-12-04 10:13:44
"0825b213-1f3f-11e7-bf6b-3863bb334450","Battery Ln & Trolley Trail",38.992375,-77.100104,15,2024-12-04 10:13:44
"66fe4efd-f6de-4300-9b35-82e3aea013e5","Duke St & Strand (Robinson Terminal)",38.801947,-77.040293,11,2024-12-04 10:13:44
"37ea9197-6332-4bf7-8940-d3641f288869","Founders Row/W Broad St & West St",38.8901554,-77.183178,12,2024-12-04 10:13:44
"08253cdb-1f3f-11e7-bf6b-3863bb334450","King St Metro South",38.8057628487349,-77.060626745224,23,2024-12-04 10:13:44
"115f58ec-eddc-40cf-a789-13517d5df2a4","South Dakota Ave & 33rd St NE",38.921986,-76.960696,15,2024-12-04 10:13:44
"5fdaa766-383e-4a92-b1bd-0e71138c6844","Anacostia Park",38.873926,-76.981179,19,2024-12-04 10:13:44
"082513a4-1f3f-11e7-bf6b-3863bb334450","4th & E St SW",38.88412,-77.017445,19,2024-12-04 10:13:44
"0825619c-1f3f-11e7-bf6b-3863bb334450","12th & Irving St NE",38.928644,-76.990955,15,2024-12-04 10:13:44
"0824a4ce-1f3f-11e7-bf6b-3863bb334450","Convention Center / 7th & M St NW",38.905737,-77.02227,27,2024-12-04 10:13:44
"0824eea3-1f3f-11e7-bf6b-3863bb334450","Rhodes St & 16th St N",38.892164,-77.079375,12,2024-12-04 10:13:44
"08248172-1f3f-11e7-bf6b-3863bb334450","Anacostia Metro",38.862601,-76.994578,19,2024-12-04 10:13:44
"41b8e956-0341-4752-89a4-659f7b9eabb8","S Reynolds St & Edsall Rd",38.809607,-77.128908,15,2024-12-04 10:13:44
"1959879531637832180","Columbia Pike & W&OD Trail ",38.856645,-77.109609,17,2024-12-04 10:13:44
"08261bf4-1f3f-11e7-bf6b-3863bb334450","Royal St & Wilkes St",38.799267,-77.0447,15,2024-12-04 10:13:44
"0824a53f-1f3f-11e7-bf6b-3863bb334450","Harvard St & Adams Mill Rd NW",38.927872,-77.043358,15,2024-12-04 10:13:44
"7641069c-42a6-4e3e-9769-7df51da6978d","Fort Stanton Rec Center",38.8573690375875,-76.9776880143763,19,2024-12-04 10:13:44
"21858490-7495-4942-b0eb-5e956db26b16","Potomac Ave & Half St SW",38.8696831486163,-77.0108154416084,23,2024-12-04 10:13:44
"5e828067-2fd6-4168-b150-5409754e734c","17th & P St NW",38.909858,-77.038566,19,2024-12-04 10:13:44
"825f1146-bd56-4b4a-acfa-ff9d95472723","West Falls Church Metro",38.9001,-77.1887,19,2024-12-04 10:13:44
"60b9672e-7668-431b-801b-affaccb680bb","4th & College St NW",38.9212329636091,-77.0181351900101,15,2024-12-04 10:13:44
"ccd82461-11b7-4553-b70b-6cb7e5e4f8c2","Oxon Hill Park & Ride",38.798749,-77.00103,15,2024-12-04 10:13:44
"92dd5072-b877-45d6-ba24-c5acbe66733b","Rosedale Rec Center",38.897808,-76.979634,19,2024-12-04 10:13:44
"8083cb0d-c3a4-417e-b46e-afe6cf1a7e67","4th St & Mississippi Ave SE",38.836,-77.0009,19,2024-12-04 10:13:44
"b8ba3b0d-9efa-4093-8baa-bb3e7d384c46","Eisenhower Ave & Ike Dr",38.802738,-77.0824626,15,2024-12-04 10:13:44
"fe33785a-90bb-40e0-9dce-91968006a5c6","Holmes Run Pkwy & N Pickett St",38.814305,-77.11893,15,2024-12-04 10:13:44
"0824de05-1f3f-11e7-bf6b-3863bb334450","11th & M St NW",38.9055785,-77.027313,23,2024-12-04 10:13:44
"affeb890-08dc-46d2-9f8a-3eedf4452640","17th St & Rhode Island Ave NW",38.9067670594083,-77.0386272668839,19,2024-12-04 10:13:44
"1890899920583743818","Old Meadow Rd & Cathy Ln",38.916908,-77.213879,12,2024-12-04 10:13:44
"0826410b-1f3f-11e7-bf6b-3863bb334450","Greensboro & International Dr",38.923083,-77.227417,11,2024-12-04 10:13:44
"ac598bfa-89c4-4229-a397-a6279b4cd536","Briggs Chaney Park & Ride",39.0778751,-76.9418666,23,2024-12-04 10:13:44
"53ebbf74-92df-4665-b863-25bd2d96e0b7","13th & O St NW/ Logan Circle",38.908735,-77.029779,23,2024-12-04 10:13:44
"5e229707-ae42-42f7-b31d-1a65af253027","N Howard St & N Imboden St",38.818509,-77.105564,15,2024-12-04 10:13:44
"eda4c5ee-faf7-4dae-b135-3065deb46ffe","North Bethesda Metro",39.04753,-77.11287,25,2024-12-04 10:13:44
"1923638474906011698","16th & K St NW/BLM Plaza",38.902677,-77.035866,39,2024-12-04 10:13:44
"08247269-1f3f-11e7-bf6b-3863bb334450","S Glebe Rd & Potomac Ave",38.8426,-77.0502,11,2024-12-04 10:13:44
"08247896-1f3f-11e7-bf6b-3863bb334450","4th & M St SW",38.876941,-77.017807,28,2024-12-04 10:13:44
"0825f794-1f3f-11e7-bf6b-3863bb334450","Eisenhower Ave & Mill Race Ln",38.801111,-77.068952,15,2024-12-04 10:13:44
"0824d140-1f3f-11e7-bf6b-3863bb334450","North Capitol St & F St NW",38.897446,-77.009888,23,2024-12-04 10:13:44
"0826540e-1f3f-11e7-bf6b-3863bb334450","3rd & Underwood St NW",38.9689354615259,-77.0162630081177,19,2024-12-04 10:13:44
"06a14329-dedb-4152-b237-e59afccd8d42","Maryland Ave & 17th St NE",38.901935,-76.978627,19,2024-12-04 10:13:44
"08249480-1f3f-11e7-bf6b-3863bb334450","Potomac & Pennsylvania Ave SE",38.8803,-76.9862,15,2024-12-04 10:13:44
